X,Y,OBJECTID,SERVICECODE,SERVICECODEDESCRIPTION,SERVICETYPECODEDESCRIPTION,ORGANIZATIONACRONYM,SERVICECALLCOUNT,ADDDATE,RESOLUTIONDATE,SERVICEDUEDATE,SERVICEORDERDATE,INSPECTIONFLAG,INSPECTIONDATE,INSPECTORNAME,SERVICEORDERSTATUS,STATUS_CODE,SERVICEREQUESTID,PRIORITY,STREETADDRESS,XCOORD,YCOORD,LATITUDE,LONGITUDE,CITY,STATE,ZIPCODE,MARADDRESSREPOSITORYID,WARD
-77.0001186271242,38.8461059086897,348,S0311,Rodent Inspection and Treatment,DOH- Department Of Health,DOH,1,2020/06/18 17:37:34+00,1970/01/01 00:00:00+00,2020/07/09 17:37:34+00,2020/06/18 17:37:34+00,,1970/01/01 00:00:00+00,,Open,,20-00212867,Standard,509 NEWCOMB STREET SE,399989.9,130921.79,38.84609847,-77.00011635,WASHINGTON,DC,20032,13616,8
-77.0288543610037,38.9564308469739,349,S0311,Rodent Inspection and Treatment,DOH- Department Of Health,DOH,1,2020/06/08 11:48:34+00,2020/06/09 14:03:34+00,2020/06/26 11:48:34+00,2020/06/08 11:48:34+00,1,2020/06/09 14:03:33+00,,Closed,,20-00198807,Standard,1217 KENNEDY STREET NW,397499.24,143169.14,38.95642338,-77.02885207,WASHINGTON,DC,20011,253073,4
-76.9964395799028,38.8890500305576,350,S0311,Rodent Inspection and Treatment,DOH- Department Of Health,DOH,1,2020/06/07 19:25:31+00,2020/06/09 13:25:27+00,2020/06/25 19:25:30+00,2020/06/07 19:25:31+00,1,2020/06/10 12:32:20+00,,Closed,,20-00198161,Standard,21 7TH STREET SE,400309.09,135688.91,38.88904224,-76.9964373,WASHINGTON,DC,20003,52001,6
-76.9959041670968,38.9474853380148,351,S0311,Rodent Inspection and Treatment,DOH- Department Of Health,DOH,1,2020/06/17 16:28:56+00,1970/01/01 00:00:00+00,2020/07/08 16:28:56+00,2020/06/17 16:28:56+00,,1970/01/01 00:00:00+00,,Open,,20-00211359,Standard,722 CRITTENDEN STREET NE,400355.25,142175.72,38.94747787,-76.99590188,WASHINGTON,DC,20017,77804,5
-77.0236049838501,38.9522181367075,352,S0311,Rodent Inspection and Treatment,DOH- Department Of Health,DOH,1,2020/06/20 22:02:57+00,1970/01/01 00:00:00+00,2020/07/09 22:02:57+00,2020/06/20 22:02:57+00,,1970/01/01 00:00:00+00,,Open,,20-00215010,Standard,5105 8TH STREET NW,397954.11,142701.36,38.95221067,-77.02360269,WASHINGTON,DC,20011,250091,4
-77.0399481447705,38.9158001454999,353,S0311,Rodent Inspection and Treatment,DOH- Department Of Health,DOH,1,2020/06/04 09:40:40+00,2020/06/05 12:38:04+00,2020/06/24 09:40:39+00,2020/06/04 09:40:40+00,1,2020/06/06 00:37:00+00,,Closed,,20-00194153,Standard,1735 T STREET NW,396535.71,138659.14,38.91579269,-77.03994585,WASHINGTON,DC,20009,295005,2
-76.981364435106,38.8889077074656,354,S0311,Rodent Inspection and Treatment,DOH- Department Of Health,DOH,1,2020/06/20 07:42:51+00,1970/01/01 00:00:00+00,2020/07/10 07:42:51+00,2020/06/20 07:42:51+00,,1970/01/01 00:00:00+00,,Open,,20-00214449,Standard,1614 A STREET SE,401616.97,135673.27,38.88890026,-76.98136216,WASHINGTON,DC,20003,59829,6
-77.0293456023115,38.9163172148982,355,S0311,Rodent Inspection and Treatment,DOH- Department Of Health,DOH,1,2020/05/22 11:10:50+00,2020/05/27 10:36:10+00,2020/06/12 11:10:50+00,2020/05/22 11:10:50+00,1,2020/05/27 10:33:00+00,,Closed,,20-00178206,Standard,1919 13TH STREET NW,397455.23,138716.19,38.91630976,-77.02934331,WASHINGTON,DC,20009,279477,1
-77.0061699997036,38.8335703939937,356,S0311,Rodent Inspection and Treatment,DOH- Department Of Health,DOH,1,2020/06/05 08:33:48+00,2020/06/11 08:58:27+00,2020/06/25 08:33:48+00,2020/06/05 08:33:48+00,1,2020/06/10 13:10:00+00,,Closed,,20-00195690,Standard,3829 1ST STREET SE,399464.49,129530.28,38.83356295,-77.00616772,WASHINGTON,DC,20032,30013,8
-77.0290097159253,38.9506320046797,357,S0311,Rodent Inspection and Treatment,DOH- Department Of Health,DOH,1,2020/06/05 08:38:55+00,2020/06/10 11:37:53+00,2020/06/25 08:38:55+00,2020/06/05 08:38:55+00,1,2020/06/10 11:37:52+00,,Closed,,20-00195708,Standard,1210 FARRAGUT STREET NW,397485.57,142525.42,38.95062454,-77.02900742,WASHINGTON,DC,20011,252867,4
-76.9977736919376,38.9505078459503,358,S0311,Rodent Inspection and Treatment,DOH- Department Of Health,DOH,1,2020/06/02 09:32:31+00,2020/06/04 07:18:42+00,2020/06/22 09:32:31+00,2020/06/02 09:32:31+00,1,2020/06/04 07:18:00+00,,Closed,,20-00190501,Standard,603 FARADAY PLACE NE,400193.18,142511.24,38.95050038,-76.99777141,WASHINGTON,DC,20017,5506,5
-77.0313551676286,38.8950101397245,359,S0311,Rodent Inspection and Treatment,DOH- Department Of Health,DOH,1,2020/06/05 12:33:32+00,2020/06/09 18:11:32+00,2020/06/25 12:33:32+00,2020/06/05 12:33:32+00,1,2020/06/08 11:22:00+00,,Closed,,20-00196260,Standard,1350 PENNSYLVANIA AVENUE NW,397280.14,136350.99,38.89500269,-77.03135287,WASHINGTON,DC,20004,293203,2
-76.9875622266381,38.8959258737742,360,S0311,Rodent Inspection and Treatment,DOH- Department Of Health,DOH,1,2020/06/02 08:58:44+00,2020/06/03 15:00:38+00,2020/06/22 08:58:44+00,2020/06/02 08:58:44+00,1,2020/06/03 14:54:00+00,,Closed,,20-00190410,Standard,1319 E STREET NE,401079.16,136452.25,38.89591842,-76.98755995,WASHINGTON,DC,20002,67876,6
-77.0781140831486,38.957870714178,361,S0311,Rodent Inspection and Treatment,DOH- Department Of Health,DOH,1,2020/06/05 14:19:22+00,2020/06/09 18:06:00+00,2020/06/25 14:19:21+00,2020/06/05 14:19:22+00,1,2020/06/11 11:35:57+00,,Closed,,20-00196494,Standard,3907 HUNTINGTON STREET NW,393229.78,143331.48,38.95786325,-77.07811177,WASHINGTON,DC,20015,265015,3
-77.0211969011181,38.8814824697614,362,S0311,Rodent Inspection and Treatment,DOH- Department Of Health,DOH,1,2020/06/01 11:33:14+00,2020/06/03 12:52:01+00,2020/06/19 11:33:14+00,2020/06/01 11:33:14+00,1,2020/06/04 00:47:00+00,,Closed,,20-00189224,Standard,629 G STREET SW,398161.02,134849.06,38.88147502,-77.02119461,WASHINGTON,DC,20024,2879,6
-76.9832075011077,38.8644435221607,363,S0311,Rodent Inspection and Treatment,DOH- Department Of Health,DOH,1,2020/06/03 10:50:15+00,2020/06/11 08:53:39+00,2020/06/23 10:50:15+00,2020/06/03 10:50:15+00,1,2020/06/10 10:52:00+00,,Closed,,20-00192645,Standard,1513 V STREET SE,401457.57,132957.53,38.86443607,-76.98320522,WASHINGTON,DC,20020,62062,8
-77.0304366971711,38.916158118838,364,S0311,Rodent Inspection and Treatment,DOH- Department Of Health,DOH,1,2020/06/04 19:20:25+00,2020/06/08 12:31:24+00,2020/06/24 19:20:25+00,2020/06/04 19:20:25+00,1,2020/06/09 00:31:00+00,,Closed,,20-00195431,Standard,1320 WALLACH PLACE NW,397360.6,138698.56,38.91615066,-77.0304344,WASHINGTON,DC,20009,240427,1
-77.074329786826,38.9273582229831,365,S0311,Rodent Inspection and Treatment,DOH- Department Of Health,DOH,1,2020/06/05 19:41:51+00,2020/06/09 18:04:35+00,2020/06/25 19:41:51+00,2020/06/05 19:41:51+00,1,2020/06/11 11:36:28+00,,Closed,,20-00196939,Standard,3716 GARFIELD STREET NW,393555.02,139944.05,38.92735077,-77.07432748,WASHINGTON,DC,20007,262620,3
-77.005710196643,38.967135895674,366,S0311,Rodent Inspection and Treatment,DOH- Department Of Health,DOH,1,2020/06/03 11:12:47+00,2020/06/10 08:55:33+00,2020/06/23 11:12:47+00,2020/06/03 11:12:47+00,1,2020/06/09 13:18:00+00,,Closed,,20-00192713,Standard,129 TUCKERMAN STREET NE,399505.34,144357.12,38.96712843,-77.00570791,WASHINGTON,DC,20011,68875,4
-77.0275384745144,38.9022426553112,367,S0311,Rodent Inspection and Treatment,DOH- Department Of Health,DOH,1,2020/06/05 14:21:21+00,2020/06/09 18:08:06+00,2020/06/25 14:21:20+00,2020/06/05 14:21:21+00,1,2020/06/08 10:38:00+00,,Closed,,20-00196502,Standard,1108 K STREET NW,397611.48,137153.75,38.9022352,-77.02753618,WASHINGTON,DC,20005,243017,2
-77.0291103775007,38.9620884213966,368,S0311,Rodent Inspection and Treatment,DOH- Department Of Health,DOH,1,2020/06/18 22:02:14+00,1970/01/01 00:00:00+00,2020/07/09 22:02:14+00,2020/06/18 22:02:14+00,,1970/01/01 00:00:00+00,,Open,,20-00213017,Standard,1231 ROCK CREEK FORD ROAD NW,397477.25,143797.19,38.96208096,-77.02910808,WASHINGTON,DC,20011,253174,4
-76.972659578328,38.8973350377921,369,S0311,Rodent Inspection and Treatment,DOH- Department Of Health,DOH,1,2020/06/03 15:26:12+00,2020/06/10 12:57:31+00,2020/06/23 15:26:12+00,2020/06/03 15:26:12+00,1,2020/06/09 13:40:00+00,,Closed,,20-00193373,Standard,548 24TH STREET NE,402371.9,136608.96,38.89732758,-76.9726573,WASHINGTON,DC,20002,8424,7
-77.0192098065165,38.9639681476085,370,S0311,Rodent Inspection and Treatment,DOH- Department Of Health,DOH,1,2020/06/19 01:14:43+00,1970/01/01 00:00:00+00,2020/07/10 01:14:43+00,2020/06/19 01:14:43+00,,1970/01/01 00:00:00+00,,Open,,20-00213063,Standard,423 QUACKENBOS STREET NW,398335.36,144005.63,38.96396068,-77.01920751,WASHINGTON,DC,20011,249025,4
-77.020486523907,38.9486383856461,371,S0311,Rodent Inspection and Treatment,DOH- Department Of Health,DOH,1,2020/06/01 16:29:43+00,2020/06/03 16:34:10+00,2020/06/19 16:29:43+00,2020/06/01 16:29:43+00,1,2020/06/04 00:33:00+00,,Closed,,20-00189941,Standard,523 DECATUR STREET NW,398224.33,142303.91,38.94863092,-77.02048423,WASHINGTON,DC,20011,247240,4
-77.0262109429628,38.964310002095,372,S0311,Rodent Inspection and Treatment,DOH- Department Of Health,DOH,1,2020/05/24 21:31:03+00,2020/06/04 10:46:56+00,2020/06/12 21:31:03+00,2020/05/24 21:31:03+00,1,2020/06/04 10:46:00+00,,Closed,,20-00180203,Standard,6106 9TH STREET NW,397728.61,144043.73,38.96430254,-77.02620865,WASHINGTON,DC,20011,254262,4
-77.0013303877656,38.9153492537559,373,S0311,Rodent Inspection and Treatment,DOH- Department Of Health,DOH,1,2020/06/20 17:23:03+00,1970/01/01 00:00:00+00,2020/07/10 17:23:03+00,2020/06/20 17:23:03+00,,1970/01/01 00:00:00+00,,Open,,20-00214901,Standard,311 T STREET NE,399884.82,138608.33,38.9153418,-77.0013281,WASHINGTON,DC,20002,40325,5
-76.9810002053708,38.8893232953494,374,S0311,Rodent Inspection and Treatment,DOH- Department Of Health,DOH,1,2020/06/05 08:21:34+00,2020/06/10 11:37:36+00,2020/06/25 08:21:33+00,2020/06/05 08:21:34+00,1,2020/06/10 11:37:35+00,,Closed,,20-00195672,Standard,15 17TH STREET SE,401648.56,135719.41,38.88931584,-76.98099793,WASHINGTON,DC,20003,312162,6
-76.9687491406607,38.8699410844802,375,S0311,Rodent Inspection and Treatment,DOH- Department Of Health,DOH,1,2020/05/27 09:51:59+00,2020/05/28 14:14:12+00,2020/06/16 09:51:59+00,2020/05/27 09:51:59+00,1,2020/05/29 00:48:00+00,,Closed,,20-00183086,Standard,1624 27TH STREET SE,402712.16,133568.13,38.86993364,-76.96874687,WASHINGTON,DC,20020,303622,7
-77.0428156023027,38.9203938295035,376,S0311,Rodent Inspection and Treatment,DOH- Department Of Health,DOH,1,2020/06/21 07:46:32+00,1970/01/01 00:00:00+00,2020/07/10 07:46:32+00,2020/06/21 07:46:32+00,,1970/01/01 00:00:00+00,,Open,,20-00215061,Standard,1820 BELMONT ROAD NW,396287.27,139169.19,38.92038637,-77.0428133,WASHINGTON,DC,20009,235439,1
-76.9476385385796,38.9039648538443,377,S0311,Rodent Inspection and Treatment,DOH- Department Of Health,DOH,1,2020/06/21 08:22:35+00,1970/01/01 00:00:00+00,2020/07/10 08:22:35+00,2020/06/21 08:22:35+00,,1970/01/01 00:00:00+00,,Open,,20-00215069,Standard,3761 JAY STREET NE,404541.98,137345.87,38.9039574,-76.94763627,WASHINGTON,DC,20019,295333,7
-77.014866587978,38.914211283158,378,S0311,Rodent Inspection and Treatment,DOH- Department Of Health,DOH,1,2020/06/02 15:02:19+00,2020/06/04 09:11:35+00,2020/06/22 15:02:19+00,2020/06/02 15:02:19+00,1,2020/06/04 09:11:35+00,,Closed,,20-00191408,Standard,213 S STREET NW,398710.87,138482.11,38.91420383,-77.0148643,WASHINGTON,DC,20001,230032,5
-77.0072353945393,38.9258922924139,379,S0311,Rodent Inspection and Treatment,DOH- Department Of Health,DOH,1,2020/06/06 07:18:58+00,2020/06/14 12:14:43+00,2020/06/25 07:18:58+00,2020/06/06 07:18:58+00,1,2020/06/15 00:14:00+00,,Closed,,20-00197078,Standard,35 GIRARD STREET NE,399372.8,139778.72,38.92588483,-77.00723311,WASHINGTON,DC,20002,34299,5
-77.0154587019708,38.9100631356998,380,S0311,Rodent Inspection and Treatment,DOH- Department Of Health,DOH,1,2020/06/06 10:51:25+00,2020/06/11 08:17:34+00,2020/06/25 10:51:25+00,2020/06/06 10:51:25+00,1,2020/06/11 08:17:34+00,,Closed,,20-00197254,Standard,1504 3RD STREET NW,398659.44,138021.64,38.91005535,-77.01545641,WASHINGTON,DC,20001,237683,5
-77.0124045860721,38.910170068624,381,S0311,Rodent Inspection and Treatment,DOH- Department Of Health,DOH,1,2020/05/27 09:56:33+00,2020/05/28 11:59:09+00,2020/06/16 09:56:33+00,2020/05/27 09:56:33+00,1,2020/05/28 11:59:09+00,,Closed,,20-00183106,Standard,1518 1ST STREET NW,398924.33,138033.47,38.91016261,-77.0124023,WASHINGTON,DC,20001,238165,5
-77.0278524027115,38.9119996139244,382,S0311,Rodent Inspection and Treatment,DOH- Department Of Health,DOH,1,2020/05/27 13:59:29+00,2020/05/28 11:10:54+00,2020/06/16 13:59:29+00,2020/05/27 13:59:29+00,1,2020/05/28 11:09:00+00,,Closed,,20-00183717,Standard,1627 12TH STREET NW,397584.58,138236.86,38.91199216,-77.02785011,WASHINGTON,DC,20009,239068,2
-77.0255104517997,38.9463072251717,383,S0311,Rodent Inspection and Treatment,DOH- Department Of Health,DOH,1,2020/06/20 14:10:27+00,1970/01/01 00:00:00+00,2020/07/10 14:10:27+00,2020/06/20 14:10:27+00,,1970/01/01 00:00:00+00,,Open,,20-00214757,Standard,4600 9TH STREET NW,397788.76,142045.24,38.94629976,-77.02550816,WASHINGTON,DC,20011,252207,4
-76.9814163824343,38.8930319299539,384,S0311,Rodent Inspection and Treatment,DOH- Department Of Health,DOH,1,2020/05/30 23:20:11+00,2020/06/02 13:58:32+00,2020/06/18 23:20:11+00,2020/05/30 23:20:11+00,1,2020/06/02 13:56:00+00,,Closed,,20-00188188,Standard,1647 C STREET NE,401612.37,136131.09,38.89302448,-76.98141411,WASHINGTON,DC,20002,58547,6
-77.026299485748,38.9462886734121,385,S0311,Rodent Inspection and Treatment,DOH- Department Of Health,DOH,1,2020/06/05 14:48:44+00,2020/06/09 14:54:19+00,2020/06/25 14:48:44+00,2020/06/05 14:48:44+00,1,2020/06/09 14:54:19+00,,Closed,,20-00196566,Standard,4601 GEORGIA AVENUE NW,397720.36,142043.2,38.94628121,-77.02629719,WASHINGTON,DC,20011,252194,4
-76.9887129305277,38.9227294206466,386,S0311,Rodent Inspection and Treatment,DOH- Department Of Health,DOH,1,2020/06/08 18:51:23+00,2020/06/11 07:45:18+00,2020/06/26 18:51:23+00,2020/06/08 18:51:23+00,1,2020/06/11 07:43:00+00,,Closed,,20-00199532,Standard,1226 BRENTWOOD ROAD NE,400978.97,139427.65,38.92272196,-76.98871065,WASHINGTON,DC,20018,70741,5
-77.0304011326324,38.9374098278169,387,S0311,Rodent Inspection and Treatment,DOH- Department Of Health,DOH,1,2020/06/08 21:05:25+00,2020/06/10 10:52:37+00,2020/06/26 21:05:25+00,2020/06/08 21:05:25+00,1,2020/06/10 10:52:37+00,,Closed,,20-00199631,Standard,1320 QUINCY STREET NW,397364.47,141057.68,38.93740237,-77.03039884,WASHINGTON,DC,20011,225274,4
-77.0258511873743,38.9280976852527,388,S0311,Rodent Inspection and Treatment,DOH- Department Of Health,DOH,1,2020/06/10 09:39:32+00,2020/06/17 10:07:52+00,2020/06/30 09:39:32+00,2020/06/10 09:39:32+00,1,2020/06/17 10:07:52+00,,Closed,,20-00201888,Standard,3007 SHERMAN AVENUE NW,397758.65,140023.83,38.92809023,-77.02584889,WASHINGTON,DC,20001,232778,1
-77.0186042104595,38.9049808877117,389,S0311,Rodent Inspection and Treatment,DOH- Department Of Health,DOH,1,2020/05/27 17:16:33+00,2020/05/28 14:16:45+00,2020/06/16 17:16:33+00,2020/05/27 17:16:33+00,1,2020/05/28 14:14:00+00,,Closed,,20-00184212,Standard,1123 5TH STREET NW,398386.51,137457.52,38.9049731,-77.01860192,WASHINGTON,DC,20001,237542,6
-77.0170365049738,38.9571397747328,390,S0311,Rodent Inspection and Treatment,DOH- Department Of Health,DOH,1,2020/06/08 19:49:34+00,2020/06/09 13:34:02+00,2020/06/26 19:49:34+00,2020/06/08 19:49:34+00,1,2020/06/09 13:34:02+00,,Closed,,20-00199580,Standard,324 MISSOURI AVENUE NW,398523.57,143247.58,38.95713231,-77.01703421,WASHINGTON,DC,20011,249433,4
-77.0243210738508,38.9427828967053,391,S0311,Rodent Inspection and Treatment,DOH- Department Of Health,DOH,1,2020/05/26 08:26:09+00,2020/05/29 10:48:24+00,2020/06/15 08:26:09+00,2020/05/26 08:26:09+00,1,2020/05/29 10:48:24+00,,Closed,,20-00181084,Standard,828 VARNUM STREET NW,397891.76,141653.98,38.94277544,-77.02431878,WASHINGTON,DC,20011,252448,4
-77.0144293295747,38.9562698371744,392,S0311,Rodent Inspection and Treatment,DOH- Department Of Health,DOH,1,2020/05/27 09:51:19+00,2020/05/29 13:14:54+00,2020/06/16 09:51:19+00,2020/05/27 09:51:19+00,1,2020/05/29 13:14:54+00,,Closed,,20-00183084,Standard,224 MISSOURI AVENUE NW,398749.53,143150.97,38.95626237,-77.01442704,WASHINGTON,DC,20011,244791,4
-76.9868011427069,38.9079600546986,393,S0311,Rodent Inspection and Treatment,DOH- Department Of Health,DOH,1,2020/06/04 10:43:33+00,2020/06/09 06:27:59+00,2020/06/24 10:43:33+00,2020/06/04 10:43:33+00,1,2020/06/09 06:27:00+00,,Closed,,20-00194340,Standard,1626 MONTELLO AVENUE NE,401144.99,137788.15,38.9079526,-76.98679886,WASHINGTON,DC,20002,59088,5
-77.0085545575242,38.9112587119096,394,S0311,Rodent Inspection and Treatment,DOH- Department Of Health,DOH,1,2020/06/01 13:47:21+00,2020/06/02 13:16:33+00,2020/06/19 13:47:21+00,2020/06/01 13:47:21+00,1,2020/06/02 13:15:00+00,,Closed,,20-00189541,Standard,2 Q STREET NE,399258.26,138154.28,38.91125126,-77.00855227,WASHINGTON,DC,20002,53227,5
-76.9874721237704,38.8346261270718,395,S0311,Rodent Inspection and Treatment,DOH- Department Of Health,DOH,1,2020/06/01 23:12:53+00,2020/06/11 08:43:27+00,2020/06/19 23:12:53+00,2020/06/01 23:12:53+00,1,2020/06/11 00:47:00+00,,Closed,,20-00190169,Standard,1200 BARNABY TERRACE SE,401087.91,129647.53,38.83461869,-76.98746985,WASHINGTON,DC,20032,72277,8
-77.0319692997311,38.9370883536309,396,S0311,Rodent Inspection and Treatment,DOH- Department Of Health,DOH,1,2020/06/02 16:29:45+00,1970/01/01 00:00:00+00,2020/06/22 16:29:45+00,2020/06/02 16:29:45+00,,1970/01/01 00:00:00+00,,Open,,20-00191662,Standard,1367 SPRING ROAD NW,397228.5,141022.04,38.93708089,-77.031967,WASHINGTON,DC,20010,225251,4
-77.0220511738612,38.936005145596,397,S0311,Rodent Inspection and Treatment,DOH- Department Of Health,DOH,1,2020/06/05 19:38:42+00,2020/06/09 08:03:07+00,2020/06/25 19:38:42+00,2020/06/05 19:38:42+00,1,2020/06/09 08:03:06+00,,Closed,,20-00196934,Standard,728 QUEBEC PLACE NW,398088.36,140901.54,38.93599769,-77.02204888,WASHINGTON,DC,20010,228400,1
-76.9849709443457,38.8642194528583,398,S0311,Rodent Inspection and Treatment,DOH- Department Of Health,DOH,1,2020/05/28 14:03:10+00,2020/06/01 18:31:06+00,2020/06/17 14:03:10+00,2020/05/28 14:03:10+00,1,2020/06/01 11:55:00+00,,Closed,,20-00185333,Standard,1422 W STREET SE,401304.53,132932.63,38.86421201,-76.98496867,WASHINGTON,DC,20020,64095,8
-76.9928610572972,38.891638783838,399,S0311,Rodent Inspection and Treatment,DOH- Department Of Health,DOH,1,2020/05/28 14:06:03+00,2020/05/28 14:50:02+00,2020/06/17 14:06:03+00,2020/05/28 14:06:03+00,1,2020/05/28 14:50:01+00,,Closed,,20-00185346,Standard,124 10TH STREET NE,400619.53,135976.3,38.89163133,-76.99285878,WASHINGTON,DC,20002,70076,6
-77.0148997115488,38.9563004963522,400,S0311,Rodent Inspection and Treatment,DOH- Department Of Health,DOH,1,2020/05/28 14:03:42+00,2020/06/02 09:55:46+00,2020/06/17 14:03:42+00,2020/05/28 14:03:42+00,1,2020/05/29 11:50:00+00,,Closed,,20-00185337,Standard,5429 KANSAS AVENUE NW,398708.76,143154.38,38.95629303,-77.01489742,WASHINGTON,DC,20011,244787,4
-76.9798416751093,38.9068837347963,401,S0311,Rodent Inspection and Treatment,DOH- Department Of Health,DOH,1,2020/06/08 11:05:28+00,2020/06/11 07:50:11+00,2020/06/26 11:05:28+00,2020/06/08 11:05:28+00,1,2020/06/11 07:49:00+00,,Closed,,20-00198718,Standard,1259 16TH STREET NE,401748.64,137668.78,38.90687628,-76.9798394,WASHINGTON,DC,20002,69352,5
-77.0043786622212,38.9157542840548,402,S0311,Rodent Inspection and Treatment,DOH- Department Of Health,DOH,1,2020/06/01 16:05:53+00,2020/06/04 06:40:52+00,2020/06/19 16:05:53+00,2020/06/01 16:05:53+00,1,2020/06/04 06:40:00+00,,Closed,,20-00189899,Standard,158 T STREET NE,399620.46,138653.3,38.91574683,-77.00437638,WASHINGTON,DC,20002,60664,5
-77.0254728367844,38.9275599719498,403,S0311,Rodent Inspection and Treatment,DOH- Department Of Health,DOH,1,2020/05/28 20:10:33+00,2020/06/04 09:03:41+00,2020/06/17 20:10:33+00,2020/05/28 20:10:33+00,1,2020/06/04 09:03:00+00,,Closed,,20-00185915,Standard,773 HOBART PLACE NW,397791.44,139964.13,38.92755251,-77.02547054,WASHINGTON,DC,20001,232686,1
-77.0298906223257,38.9173162810675,404,S0311,Rodent Inspection and Treatment,DOH- Department Of Health,DOH,1,2020/05/31 19:26:15+00,2020/06/03 09:13:11+00,2020/06/18 19:26:15+00,2020/05/31 19:26:15+00,1,2020/06/03 09:13:10+00,,Closed,,20-00188529,Standard,2006 13TH STREET NW,397408,138827.11,38.91730882,-77.02988833,WASHINGTON,DC,20009,240344,1
-76.9528213834473,38.9066693873815,405,S0311,Rodent Inspection and Treatment,DOH- Department Of Health,DOH,1,2020/06/01 13:06:28+00,2020/06/05 07:54:58+00,2020/06/19 13:06:27+00,2020/06/01 13:06:28+00,1,2020/06/04 14:19:00+00,,Closed,,20-00189420,Standard,3301 - 3730 BLOCK OF HAYES STREET NE,404092.269999996,137645.850003318,38.9066615961165,-76.952819114199,WASHINGTON,DC,20019,816724,7
-76.9895194118172,38.839932309499,406,S0311,Rodent Inspection and Treatment,DOH- Department Of Health,DOH,1,2020/05/28 09:22:07+00,2020/06/01 18:09:02+00,2020/06/17 09:22:07+00,2020/05/28 09:22:07+00,1,2020/06/02 00:35:00+00,,Closed,,20-00184655,Standard,1200 MISSISSIPPI AVENUE SE,400910.09,130236.53,38.83992453,-76.98951714,WASHINGTON,DC,20032,296061,8
-76.9681788350848,38.8511089136326,407,S0311,Rodent Inspection and Treatment,DOH- Department Of Health,DOH,1,2020/06/05 07:51:34+00,2020/06/11 08:45:48+00,2020/06/25 07:51:34+00,2020/06/05 07:51:34+00,1,2020/06/11 00:00:00+00,,Closed,,20-00195615,Standard,2727 JASPER STREET SE,402762.38,131477.64,38.85110147,-76.96817656,WASHINGTON,DC,20020,45112,8
-77.0282907873843,38.9245204578081,408,S0311,Rodent Inspection and Treatment,DOH- Department Of Health,DOH,1,2020/06/08 17:30:10+00,2020/06/15 08:02:13+00,2020/06/26 17:30:10+00,2020/06/08 17:30:10+00,1,2020/06/15 08:00:00+00,,Closed,,20-00199447,Standard,1208 FAIRMONT STREET NW,397546.99,139626.79,38.924513,-77.02828849,WASHINGTON,DC,20009,231881,1
-77.0695993883476,38.9692374840683,409,S0311,Rodent Inspection and Treatment,DOH- Department Of Health,DOH,1,2020/06/02 13:53:54+00,2020/06/10 09:26:28+00,2020/06/22 13:53:54+00,2020/06/02 13:53:54+00,1,2020/06/06 00:31:00+00,,Closed,,20-00191153,Standard,6011 BROAD BRANCH ROAD NW,393968.74,144592.7,38.96923002,-77.06959708,WASHINGTON,DC,20015,261975,4
-77.0027485507867,38.8975444057613,410,S0311,Rodent Inspection and Treatment,DOH- Department Of Health,DOH,1,2020/06/06 09:17:12+00,2020/06/09 18:32:35+00,2020/06/25 09:17:12+00,2020/06/06 09:17:12+00,1,2020/06/10 12:34:10+00,,Closed,,20-00197152,Standard,218 F STREET NE,399761.77,136631.85,38.89753695,-77.00274627,WASHINGTON,DC,20002,50995,6
-77.0348335615434,38.9172089740507,1,S0311,Rodent Inspection and Treatment,DOH- Department Of Health,DOH,1,2020/06/16 09:31:33+00,1970/01/01 00:00:00+00,2020/07/07 09:31:33+00,2020/06/16 09:31:33+00,,1970/01/01 00:00:00+00,,Open,,20-00208988,Standard,2002 15TH STREET NW,396979.33,138815.35,38.91720118,-77.03483127,WASHINGTON,DC,20009,242052,1
-77.0249470084976,38.9138894093003,2,S0311,Rodent Inspection and Treatment,DOH- Department Of Health,DOH,1,2020/06/02 10:43:16+00,2020/06/03 13:19:13+00,2020/06/22 10:43:16+00,2020/06/02 10:43:16+00,1,2020/06/03 13:15:00+00,,Closed,,20-00190702,Standard,924 S STREET NW,397836.62,138446.57,38.91388195,-77.02494472,WASHINGTON,DC,20001,239672,6
-76.9808198394081,38.8969550681175,3,S0311,Rodent Inspection and Treatment,DOH- Department Of Health,DOH,1,2020/06/02 10:45:58+00,2020/06/03 15:05:29+00,2020/06/22 10:45:58+00,2020/06/02 10:45:58+00,1,2020/06/03 15:04:00+00,,Closed,,20-00190708,Standard,1650 F STREET NE,401664.03,136566.6,38.89694761,-76.98081756,WASHINGTON,DC,20002,58607,6
-77.0462035413322,38.9338989783743,4,S0311,Rodent Inspection and Treatment,DOH- Department Of Health,DOH,1,2020/06/09 12:14:48+00,2020/06/18 08:23:31+00,2020/06/29 12:14:47+00,2020/06/09 12:14:48+00,1,2020/06/18 08:23:30+00,,Closed,,20-00200525,Standard,2026 PIERCE MILL ROAD NW,395994.23,140668.52,38.93389152,-77.04620124,WASHINGTON,DC,20010,234859,1
-76.9727790540877,38.8969068080033,5,S0311,Rodent Inspection and Treatment,DOH- Department Of Health,DOH,1,2020/06/15 21:48:22+00,2020/06/17 13:18:50+00,2020/07/06 21:48:22+00,2020/06/15 21:48:22+00,1,2020/06/17 13:18:00+00,,Closed,,20-00208704,Standard,528 24TH STREET NE,402361.55,136561.42,38.89689935,-76.97277678,WASHINGTON,DC,20002,10847,7
-77.0235756729427,38.9518456505369,6,S0311,Rodent Inspection and Treatment,DOH- Department Of Health,DOH,1,2020/06/16 08:00:42+00,1970/01/01 00:00:00+00,2020/07/07 08:00:42+00,2020/06/16 08:00:42+00,,1970/01/01 00:00:00+00,,Open,,20-00208853,Standard,734 GALLATIN STREET NW,397956.64,142660.01,38.95183819,-77.02357338,WASHINGTON,DC,20011,250054,4
-76.9910910060608,38.904477021528,7,S0311,Rodent Inspection and Treatment,DOH- Department Of Health,DOH,1,2020/06/16 09:13:22+00,2020/06/18 07:55:27+00,2020/07/07 09:13:22+00,2020/06/16 09:13:22+00,1,2020/06/18 07:54:00+00,,Closed,,20-00208950,Standard,1134 MORSE STREET NE,400772.95,137401.46,38.90446957,-76.99108872,WASHINGTON,DC,20002,73014,5
-77.0200942184114,38.9291239630206,8,S0311,Rodent Inspection and Treatment,DOH- Department Of Health,DOH,1,2020/05/29 21:22:24+00,2020/06/02 13:19:26+00,2020/06/18 21:22:24+00,2020/05/29 21:22:24+00,1,2020/06/02 13:19:26+00,,Closed,,20-00187515,Standard,512 IRVING STREET NW,398257.86,140137.63,38.9291165,-77.02009193,WASHINGTON,DC,20010,229424,1
-77.0141430565861,38.9206417004365,9,S0311,Rodent Inspection and Treatment,DOH- Department Of Health,DOH,1,2020/06/15 16:45:49+00,1970/01/01 00:00:00+00,2020/07/06 16:45:49+00,2020/06/15 16:45:49+00,,1970/01/01 00:00:00+00,,Open,,20-00208444,Standard,158 BRYANT STREET NW,398773.73,139195.93,38.92063424,-77.01414077,WASHINGTON,DC,20001,228166,5
-76.9819933624707,38.8891789582798,10,S0311,Rodent Inspection and Treatment,DOH- Department Of Health,DOH,1,2020/06/14 20:07:20+00,2020/06/16 10:52:46+00,2020/07/02 20:07:20+00,2020/06/14 20:07:20+00,1,2020/06/16 10:53:11+00,,Closed,,20-00207246,Standard,22 16TH STREET SE,401562.4,135703.37,38.88917151,-76.98199109,WASHINGTON,DC,20003,50854,6
-76.9357020774862,38.8884476549125,11,S0311,Rodent Inspection and Treatment,DOH- Department Of Health,DOH,1,2020/06/11 14:45:37+00,2020/06/16 14:55:29+00,2020/07/01 14:45:37+00,2020/06/11 14:45:37+00,1,2020/06/16 11:01:00+00,,Closed,,20-00204134,Standard,114 46TH STREET SE,405578.55,135624,38.8884402,-76.93569981,WASHINGTON,DC,20019,73111,7
-77.0686292379838,38.9154030645513,12,S0311,Rodent Inspection and Treatment,DOH- Department Of Health,DOH,1,2020/05/24 05:23:01+00,2020/05/28 09:29:38+00,2020/06/12 05:23:01+00,2020/05/24 05:23:01+00,1,2020/05/27 11:01:00+00,,Closed,,20-00179893,Standard,1819 35TH STREET NW,394048.32,138616.54,38.91539528,-77.06862693,WASHINGTON,DC,20007,274432,2
-76.99614225592,38.9604972504273,13,S0311,Rodent Inspection and Treatment,DOH- Department Of Health,DOH,1,2020/05/30 17:02:44+00,2020/06/03 16:05:05+00,2020/06/18 17:02:44+00,2020/05/30 17:02:44+00,1,2020/06/03 16:04:00+00,,Closed,,20-00188022,Standard,5858 EASTERN AVENUE NE,400334.55,143620.16,38.96048978,-76.99613997,WASHINGTON,DC,20011,6140,4
-77.024089891432,38.9574054221048,14,S0311,Rodent Inspection and Treatment,DOH- Department Of Health,DOH,1,2020/05/25 05:44:21+00,2020/05/26 16:54:05+00,2020/06/12 05:44:21+00,2020/05/25 05:44:21+00,1,2020/05/26 11:48:00+00,,Closed,,20-00180253,Standard,8TH STREET NW AND LONGFELLOW STREET NW,397912.230012019,143277.207021005,38.9573976232713,-77.0240875968819,WASHINGTON,DC,20011,901327,4
-76.9985611729278,38.9615174902489,15,S0311,Rodent Inspection and Treatment,DOH- Department Of Health,DOH,1,2020/05/27 13:33:19+00,2020/05/29 08:35:22+00,2020/06/16 13:33:19+00,2020/05/27 13:33:19+00,1,2020/05/29 00:03:00+00,,Closed,,20-00183657,Standard,614 OGLETHORPE STREET NE,400124.9,143733.41,38.96151002,-76.99855889,WASHINGTON,DC,20011,4298,4
-76.9913219676319,38.8909000830529,16,S0311,Rodent Inspection and Treatment,DOH- Department Of Health,DOH,1,2020/05/27 13:33:20+00,2020/05/28 15:02:50+00,2020/06/16 13:33:20+00,2020/05/27 13:33:20+00,1,2020/05/28 15:02:00+00,,Closed,,20-00183659,Standard,119 11TH STREET NE,400753.06,135894.31,38.89089263,-76.99131969,WASHINGTON,DC,20002,72323,6
-76.9959111974555,38.9033294451076,17,S0311,Rodent Inspection and Treatment,DOH- Department Of Health,DOH,1,2020/05/23 17:42:39+00,2020/05/26 12:22:45+00,2020/06/12 17:42:38+00,2020/05/23 17:42:39+00,1,2020/05/27 00:22:00+00,,Closed,,20-00179697,Standard,1027 7TH STREET NE,400354.86,137274.04,38.90332199,-76.99590891,WASHINGTON,DC,20002,75303,6
-77.0410080746476,38.9248643180962,18,S0311,Rodent Inspection and Treatment,DOH- Department Of Health,DOH,1,2020/05/26 07:49:59+00,2020/05/27 10:02:01+00,2020/06/15 07:49:59+00,2020/05/26 07:49:59+00,1,2020/05/27 09:57:00+00,,Closed,,20-00181020,Standard,2722 ONTARIO ROAD NW,396444.24,139665.38,38.92485686,-77.04100578,WASHINGTON,DC,20009,235902,1
-77.0098202780722,38.9142845136054,19,S0311,Rodent Inspection and Treatment,DOH- Department Of Health,DOH,1,2020/05/26 07:53:05+00,2020/05/28 11:20:56+00,2020/06/15 07:53:05+00,2020/05/26 07:53:05+00,1,2020/05/28 11:20:56+00,,Closed,,20-00181025,Standard,17 S STREET NW,399148.52,138490.18,38.91427706,-77.00981799,WASHINGTON,DC,20001,227085,5
-77.0310175297708,38.9260264973168,20,S0311,Rodent Inspection and Treatment,DOH- Department Of Health,DOH,1,2020/05/31 08:31:22+00,2020/06/03 08:55:35+00,2020/06/18 08:31:21+00,2020/05/31 08:31:22+00,1,2020/06/03 08:55:35+00,,Closed,,20-00188241,Standard,1339 GIRARD STREET NW,397310.6,139794.05,38.92601904,-77.03101524,WASHINGTON,DC,20009,231578,1
-76.9882582278425,38.905924053044,21,S0311,Rodent Inspection and Treatment,DOH- Department Of Health,DOH,1,2020/05/23 12:06:07+00,2020/05/28 07:11:26+00,2020/06/12 12:06:07+00,2020/05/23 12:06:07+00,1,2020/05/28 07:11:00+00,,Closed,,20-00179423,Standard,1410 MONTELLO AVENUE NE,401018.64,137562.12,38.9059166,-76.98825595,WASHINGTON,DC,20002,64789,5
-77.0198742929049,38.9320451252733,22,S0311,Rodent Inspection and Treatment,DOH- Department Of Health,DOH,1,2020/05/31 21:25:16+00,2020/06/02 13:17:24+00,2020/06/18 21:25:16+00,2020/05/31 21:25:16+00,1,2020/06/02 13:17:24+00,,Closed,,20-00188562,Standard,463 LURAY PLACE NW,398277,140461.9,38.93203767,-77.019872,WASHINGTON,DC,20010,229060,1
-77.0260048334873,38.9307097013194,23,S0311,Rodent Inspection and Treatment,DOH- Department Of Health,DOH,1,2020/05/31 22:26:35+00,2020/06/02 13:15:49+00,2020/06/18 22:26:35+00,2020/05/31 22:26:35+00,1,2020/06/02 13:15:48+00,,Closed,,20-00188587,Standard,832 LAMONT STREET NW,397745.41,140313.79,38.93070224,-77.02600254,WASHINGTON,DC,20010,232944,1
-77.0272092759882,38.9549769468706,24,S0311,Rodent Inspection and Treatment,DOH- Department Of Health,DOH,1,2020/05/26 10:33:16+00,2020/06/04 20:10:28+00,2020/06/15 10:33:16+00,2020/05/26 10:33:16+00,1,2020/06/04 10:09:00+00,,Closed,,20-00181406,Standard,1108 JEFFERSON STREET NW,397641.78,143007.7,38.95496948,-77.02720698,WASHINGTON,DC,20011,254621,4
-77.0730459775834,38.9445847100908,25,S0311,Rodent Inspection and Treatment,DOH- Department Of Health,DOH,1,2020/05/26 10:37:18+00,2020/05/27 11:27:16+00,2020/06/15 10:37:18+00,2020/05/26 10:37:18+00,1,2020/05/27 11:25:00+00,,Closed,,20-00181417,Standard,3710 WARREN STREET NW,393667.87,141856.25,38.94457725,-77.07304367,WASHINGTON,DC,20016,222736,3
-77.0124246269979,38.9166672405354,26,S0311,Rodent Inspection and Treatment,DOH- Department Of Health,DOH,1,2020/05/29 09:26:29+00,2020/06/02 11:14:54+00,2020/06/18 09:26:29+00,2020/05/29 09:26:29+00,1,2020/06/02 11:14:54+00,,Closed,,20-00186251,Standard,1934 1ST STREET NW,398922.69,138754.71,38.91665978,-77.01242234,WASHINGTON,DC,20001,227488,5
-77.0160969709923,38.9513416455314,27,S0311,Rodent Inspection and Treatment,DOH- Department Of Health,DOH,1,2020/05/29 19:57:28+00,2020/06/04 10:09:44+00,2020/06/18 19:57:27+00,2020/05/29 19:57:28+00,1,2020/06/04 10:09:44+00,,Closed,,20-00187478,Standard,5002 3RD STREET NW,398604.89,142603.92,38.95133418,-77.01609468,WASHINGTON,DC,20011,243758,4
-76.9919928169911,38.83958883287,28,S0311,Rodent Inspection and Treatment,DOH- Department Of Health,DOH,1,2020/05/28 09:52:41+00,2020/06/01 17:55:13+00,2020/06/17 09:52:41+00,2020/05/28 09:52:41+00,1,2020/06/02 00:20:00+00,,Closed,,20-00184758,Standard,3433 10TH PLACE SE,400695.36,130198.38,38.83958106,-76.99199054,WASHINGTON,DC,20032,312809,8
-77.0081648535797,38.9153787034548,29,S0311,Rodent Inspection and Treatment,DOH- Department Of Health,DOH,1,2020/06/01 07:09:44+00,2020/06/04 07:16:30+00,2020/06/19 07:09:44+00,2020/06/01 07:09:44+00,1,2020/06/04 07:15:00+00,,Closed,,20-00188682,Standard,21 T STREET NE,399292.1,138611.63,38.91537125,-77.00816257,WASHINGTON,DC,20002,52031,5
-77.0267964832436,38.9289047072982,30,S0311,Rodent Inspection and Treatment,DOH- Department Of Health,DOH,1,2020/05/26 06:44:40+00,2020/05/27 08:14:15+00,2020/06/15 06:44:40+00,2020/05/26 06:44:40+00,1,2020/05/27 08:14:15+00,,Closed,,20-00180972,Standard,1011 IRVING STREET NW,397676.71,140113.44,38.92889725,-77.02679419,WASHINGTON,DC,20010,231290,1
-76.9992597852262,38.896836018003,31,S0311,Rodent Inspection and Treatment,DOH- Department Of Health,DOH,1,2020/05/27 18:52:03+00,2020/05/28 12:14:25+00,2020/06/16 18:52:03+00,2020/05/27 18:52:03+00,1,2020/05/29 00:06:00+00,,Closed,,20-00184296,Standard,519 5TH STREET NE,400064.41,136553.21,38.89682856,-76.9992575,WASHINGTON,DC,20002,12071,6
-77.0295128541651,38.9348387261435,32,S0311,Rodent Inspection and Treatment,DOH- Department Of Health,DOH,1,2020/05/26 18:06:07+00,2020/05/27 10:03:25+00,2020/06/15 18:06:06+00,2020/05/26 18:06:07+00,1,2020/05/27 10:03:25+00,,Closed,,20-00182493,Standard,3607 13TH STREET NW,397441.39,140772.24,38.93483127,-77.02951056,WASHINGTON,DC,20010,230344,1
-77.0043815871654,38.916441799994,33,S0311,Rodent Inspection and Treatment,DOH- Department Of Health,DOH,1,2020/05/26 18:07:24+00,2020/05/28 07:10:31+00,2020/06/15 18:07:24+00,2020/05/26 18:07:24+00,1,2020/05/28 07:10:00+00,,Closed,,20-00182497,Standard,158 TODD PLACE NE,399620.21,138729.62,38.91643434,-77.0043793,WASHINGTON,DC,20002,60666,5
-76.9985693741016,38.8574456277707,34,S0311,Rodent Inspection and Treatment,DOH- Department Of Health,DOH,1,2020/05/26 11:17:30+00,2020/06/01 18:29:41+00,2020/06/15 11:17:30+00,2020/05/26 11:17:30+00,1,2020/06/01 11:35:00+00,,Closed,,20-00181537,Standard,2820 WADE ROAD SE,400124.37,132180.58,38.85743785,-76.99856709,WASHINGTON,DC,20020,278275,8
-77.0219994543988,38.9422067361147,35,S0311,Rodent Inspection and Treatment,DOH- Department Of Health,DOH,1,2020/05/26 11:18:24+00,2020/05/28 20:48:37+00,2020/06/15 11:18:24+00,2020/05/26 11:18:24+00,1,2020/05/28 10:34:00+00,,Closed,,20-00181542,Standard,707 UPSHUR STREET NW,398093.01,141589.97,38.94219927,-77.02199716,WASHINGTON,DC,20011,249779,4
-77.0550829297309,38.9275716568279,36,S0311,Rodent Inspection and Treatment,DOH- Department Of Health,DOH,1,2020/05/26 11:14:33+00,2020/05/27 12:05:25+00,2020/06/15 11:14:33+00,2020/05/26 11:14:33+00,1,2020/05/28 00:04:00+00,,Closed,,20-00181528,Standard,2827 27TH STREET NW,395223.94,139966.56,38.9275642,-77.05508063,WASHINGTON,DC,20008,219964,3
-77.0396080300147,38.9343539768684,37,S0311,Rodent Inspection and Treatment,DOH- Department Of Health,DOH,1,2020/05/26 11:16:50+00,2020/05/27 10:05:27+00,2020/06/15 11:16:50+00,2020/05/26 11:16:50+00,1,2020/05/27 10:05:27+00,,Closed,,20-00181535,Standard,1725 NEWTON STREET NW,396566.1,140718.76,38.93434652,-77.03960573,WASHINGTON,DC,20010,234009,1
-77.0196428924475,38.9151522191779,38,S0311,Rodent Inspection and Treatment,DOH- Department Of Health,DOH,1,2020/05/27 17:52:10+00,2020/05/28 13:59:40+00,2020/06/16 17:52:10+00,2020/05/27 17:52:10+00,1,2020/05/28 13:59:38+00,,Closed,,20-00184246,Standard,518 FLORIDA AVENUE NW,398296.66,138586.64,38.91514476,-77.0196406,WASHINGTON,DC,20001,279823,6
-77.0313566160221,38.9190223449998,39,S0311,Rodent Inspection and Treatment,DOH- Department Of Health,DOH,1,2020/05/28 11:40:49+00,2020/06/03 08:55:25+00,2020/06/17 11:40:49+00,2020/05/28 11:40:49+00,1,2020/06/03 08:52:00+00,,Closed,,20-00185002,Standard,1342 W STREET NW,397280.93,139016.54,38.91901489,-77.03135432,WASHINGTON,DC,20009,240296,1
-77.0175907341232,38.9570209637333,40,S0311,Rodent Inspection and Treatment,DOH- Department Of Health,DOH,1,2020/05/28 13:42:44+00,2020/05/29 13:08:08+00,2020/06/17 13:42:44+00,2020/05/28 13:42:44+00,1,2020/05/29 13:08:07+00,,Closed,,20-00185277,Standard,5515 4TH STREET NW,398475.53,143234.4,38.9570135,-77.01758844,WASHINGTON,DC,20011,249454,4
-77.0348293004222,38.9106091964788,41,S0311,Rodent Inspection and Treatment,DOH- Department Of Health,DOH,1,2020/05/26 16:49:22+00,2020/05/28 14:14:57+00,2020/06/15 16:49:22+00,2020/05/26 16:49:22+00,1,2020/05/28 11:27:00+00,,Closed,,20-00182389,Standard,1530 15TH STREET NW,396979.42,138082.72,38.91060174,-77.03482701,WASHINGTON,DC,20005,225744,2
-76.9806027305563,38.9064383106382,42,S0311,Rodent Inspection and Treatment,DOH- Department Of Health,DOH,1,2020/05/26 16:55:08+00,2020/05/28 07:16:09+00,2020/06/15 16:55:08+00,2020/05/26 16:55:08+00,1,2020/05/28 07:15:00+00,,Closed,,20-00182397,Standard,1228 16TH STREET NE,401682.64,137619.32,38.90643085,-76.98060045,WASHINGTON,DC,20002,70618,5
-77.0282582804606,38.9239732101851,43,S0311,Rodent Inspection and Treatment,DOH- Department Of Health,DOH,1,2020/05/28 15:40:52+00,2020/06/03 09:14:25+00,2020/06/17 15:40:52+00,2020/05/28 15:40:52+00,1,2020/06/03 09:14:24+00,,Closed,,20-00185592,Standard,1201 EUCLID STREET NW,397549.79,139566.04,38.92396575,-77.02825599,WASHINGTON,DC,20009,218044,1
-77.0216889631235,38.9665738906262,44,S0311,Rodent Inspection and Treatment,DOH- Department Of Health,DOH,1,2020/05/31 08:28:14+00,2020/06/03 15:47:16+00,2020/06/18 08:28:14+00,2020/05/31 08:28:14+00,1,2020/06/02 13:27:00+00,,Closed,,20-00188240,Standard,610 SOMERSET PLACE NW,398120.57,144294.94,38.96656642,-77.02168667,WASHINGTON,DC,20011,251476,4
-77.0005924240838,38.8461358152699,45,S0311,Rodent Inspection and Treatment,DOH- Department Of Health,DOH,1,2020/05/31 08:58:48+00,2020/06/01 18:12:59+00,2020/06/18 08:58:48+00,2020/05/31 08:58:48+00,1,2020/06/02 00:55:00+00,,Closed,,20-00188250,Standard,3008 5TH STREET SE,399948.77,130925.11,38.84612837,-77.00059014,WASHINGTON,DC,20032,42320,8
-77.0046357518667,38.9168216715891,46,S0311,Rodent Inspection and Treatment,DOH- Department Of Health,DOH,1,2020/05/24 22:03:53+00,2020/05/28 07:26:02+00,2020/06/12 22:03:53+00,2020/05/24 22:03:53+00,1,2020/05/28 07:25:00+00,,Closed,,20-00180205,Standard,151 U STREET NE,399598.17,138771.79,38.91681421,-77.00463347,WASHINGTON,DC,20002,62086,5
-77.0651589747324,38.9089804814219,47,S0311,Rodent Inspection and Treatment,DOH- Department Of Health,DOH,1,2020/05/26 10:39:21+00,2020/05/28 14:11:16+00,2020/06/15 10:39:21+00,2020/05/26 10:39:21+00,1,2020/05/28 10:06:00+00,,Closed,,20-00181423,Standard,3255 P STREET NW,394348.77,137903.36,38.90897303,-77.06515667,WASHINGTON,DC,20007,274578,2
-76.9727365667634,38.8970779570412,48,S0311,Rodent Inspection and Treatment,DOH- Department Of Health,DOH,1,2020/05/31 10:02:05+00,2020/06/02 14:14:14+00,2020/06/18 10:02:05+00,2020/05/31 10:02:05+00,1,2020/06/02 14:13:00+00,,Closed,,20-00188260,Standard,536 24TH STREET NE,402365.23,136580.42,38.8970705,-76.97273429,WASHINGTON,DC,20002,9644,7
-77.0114002469695,38.9146548829991,49,S0311,Rodent Inspection and Treatment,DOH- Department Of Health,DOH,1,2020/05/28 19:02:02+00,2020/06/02 11:06:04+00,2020/06/17 19:02:02+00,2020/05/28 19:02:02+00,1,2020/06/02 11:06:04+00,,Closed,,20-00185857,Standard,72 SEATON PLACE NW,399011.5,138531.31,38.91464743,-77.01139796,WASHINGTON,DC,20001,227123,5
-77.0165186926317,38.9451408276503,50,S0311,Rodent Inspection and Treatment,DOH- Department Of Health,DOH,1,2020/05/30 19:52:02+00,2020/06/03 21:11:56+00,2020/06/18 19:52:02+00,2020/05/30 19:52:02+00,1,2020/06/03 13:11:00+00,,Closed,,20-00188106,Standard,320 ALLISON STREET NW,398568.21,141915.58,38.94513337,-77.0165164,WASHINGTON,DC,20011,244025,4
-77.0151611026592,38.9409076565515,51,S0311,Rodent Inspection and Treatment,DOH- Department Of Health,DOH,1,2020/05/30 19:56:32+00,2020/06/02 14:30:49+00,2020/06/18 19:56:31+00,2020/05/30 19:56:32+00,1,2020/06/02 14:30:49+00,,Closed,,20-00188109,Standard,214 TAYLOR STREET NW,398685.82,141445.64,38.94090019,-77.01515881,WASHINGTON,DC,20011,244287,4
-77.0198880880584,38.951316199168,52,S0311,Rodent Inspection and Treatment,DOH- Department Of Health,DOH,1,2020/05/31 13:57:20+00,2020/06/03 16:24:35+00,2020/06/18 13:57:20+00,2020/05/31 13:57:20+00,1,2020/06/03 16:24:00+00,,Closed,,20-00188366,Standard,5006 5TH STREET NW,398276.27,142601.16,38.95130874,-77.0198858,WASHINGTON,DC,20011,247092,4
-77.0049064597779,38.917945540012,53,S0311,Rodent Inspection and Treatment,DOH- Department Of Health,DOH,1,2020/05/31 14:09:51+00,2020/06/01 18:34:39+00,2020/06/18 14:09:51+00,2020/05/31 14:09:51+00,1,2020/06/01 18:34:00+00,,Closed,,20-00188373,Standard,143 V STREET NE,399574.7,138896.55,38.91793808,-77.00490417,WASHINGTON,DC,20002,63781,5
-76.9809973292112,38.8888699933048,54,S0311,Rodent Inspection and Treatment,DOH- Department Of Health,DOH,1,2020/05/28 17:46:18+00,2020/05/29 13:44:37+00,2020/06/17 17:46:18+00,2020/05/28 17:46:18+00,1,2020/05/29 13:41:00+00,,Closed,,20-00185777,Standard,35 17TH STREET SE,401648.82,135669.09,38.88886254,-76.98099505,WASHINGTON,DC,20003,34287,6
-76.9957014898555,38.8937582324471,55,S0311,Rodent Inspection and Treatment,DOH- Department Of Health,DOH,1,2020/05/26 10:06:04+00,2020/05/28 11:52:20+00,2020/06/15 10:06:04+00,2020/05/26 10:06:04+00,1,2020/05/28 11:49:00+00,,Closed,,20-00181310,Standard,708 C STREET NE,400373.1,136211.56,38.89375078,-76.99569921,WASHINGTON,DC,20002,76680,6
-76.9805502506016,38.9065187464798,56,S0311,Rodent Inspection and Treatment,DOH- Department Of Health,DOH,1,2020/05/26 16:56:01+00,2020/05/28 07:15:10+00,2020/06/15 16:56:01+00,2020/05/26 16:56:01+00,1,2020/05/28 07:14:00+00,,Closed,,20-00182399,Standard,1232 16TH STREET NE,401687.19,137628.25,38.90651129,-76.98054797,WASHINGTON,DC,20002,70410,5
-77.0225399089622,38.9488961850036,57,S0311,Rodent Inspection and Treatment,DOH- Department Of Health,DOH,1,2020/05/28 17:58:09+00,2020/06/02 09:39:08+00,2020/06/17 17:58:09+00,2020/05/28 17:58:09+00,1,2020/05/29 11:30:00+00,,Closed,,20-00185792,Standard,4815 ILLINOIS AVENUE NW,398046.34,142332.57,38.94888872,-77.02253762,WASHINGTON,DC,20011,249933,4
-77.0153017191314,38.9452397241052,58,S0311,Rodent Inspection and Treatment,DOH- Department Of Health,DOH,1,2020/05/28 15:49:27+00,2020/06/02 09:53:14+00,2020/06/17 15:49:27+00,2020/05/28 15:49:27+00,1,2020/05/29 14:17:00+00,,Closed,,20-00185611,Standard,4431 3RD STREET NW,398673.71,141926.54,38.94523226,-77.01529943,WASHINGTON,DC,20011,244461,4
-77.0259185062845,38.9549758889246,59,S0311,Rodent Inspection and Treatment,DOH- Department Of Health,DOH,1,2020/05/28 17:19:04+00,2020/06/02 09:37:51+00,2020/06/17 17:19:04+00,2020/05/28 17:19:04+00,1,2020/05/29 11:20:00+00,,Closed,,20-00185744,Standard,5324 9TH STREET NW,397753.66,143007.55,38.95496842,-77.02591621,WASHINGTON,DC,20011,254669,4
-76.9703024063582,38.8748425121443,60,S0311,Rodent Inspection and Treatment,DOH- Department Of Health,DOH,1,2020/05/28 17:19:59+00,2020/05/29 12:21:35+00,2020/06/17 17:19:59+00,2020/05/28 17:19:59+00,1,2020/05/29 09:14:00+00,,Closed,,20-00185745,Standard,2503 FAIRLAWN AVENUE SE,402577.19,134112.18,38.87483506,-76.97030013,WASHINGTON,DC,20020,46520,7
-76.9893563707143,38.8905282349588,61,S0311,Rodent Inspection and Treatment,DOH- Department Of Health,DOH,1,2020/05/29 09:41:48+00,2020/06/02 14:13:30+00,2020/06/18 09:41:48+00,2020/05/29 09:41:48+00,1,2020/06/02 14:12:00+00,,Closed,,20-00186296,Standard,1206 EAST CAPITOL STREET NE,400923.59,135853.05,38.89052078,-76.98935409,WASHINGTON,DC,20002,72036,6
-77.057844882445,38.9338232614868,62,S0311,Rodent Inspection and Treatment,DOH- Department Of Health,DOH,1,2020/05/30 18:34:33+00,2020/06/02 09:52:47+00,2020/06/18 18:34:33+00,2020/05/30 18:34:33+00,1,2020/06/02 09:50:00+00,,Closed,,20-00188068,Standard,3310 CONNECTICUT AVENUE NW,394984.89,140660.69,38.9338158,-77.05784258,WASHINGTON,DC,20008,221190,3
-77.0248250344255,38.9291778243437,63,S0311,Rodent Inspection and Treatment,DOH- Department Of Health,DOH,1,2020/05/30 18:39:01+00,2020/06/02 13:18:34+00,2020/06/18 18:39:01+00,2020/05/30 18:39:01+00,1,2020/06/02 13:18:34+00,,Closed,,20-00188074,Standard,737 IRVING STREET NW,397847.66,140143.71,38.92917003,-77.02482274,WASHINGTON,DC,20010,232863,1
-77.0199083983531,38.9517509350002,64,S0311,Rodent Inspection and Treatment,DOH- Department Of Health,DOH,1,2020/05/30 20:48:18+00,2020/06/03 16:26:10+00,2020/06/18 20:48:18+00,2020/05/30 20:48:18+00,1,2020/06/03 22:55:00+00,,Closed,,20-00188131,Standard,5024 5TH STREET NW,398274.52,142649.42,38.95174347,-77.01990611,WASHINGTON,DC,20011,247083,4
-77.0198993459608,38.9515579793231,65,S0311,Rodent Inspection and Treatment,DOH- Department Of Health,DOH,1,2020/05/31 06:15:27+00,2020/06/03 16:19:21+00,2020/06/18 06:15:27+00,2020/05/31 06:15:27+00,1,2020/06/03 16:42:00+00,,Closed,,20-00188222,Standard,5016 5TH STREET NW,398275.3,142628,38.95155052,-77.01989705,WASHINGTON,DC,20011,247087,4
-76.9876133617722,38.9068216685481,66,S0311,Rodent Inspection and Treatment,DOH- Department Of Health,DOH,1,2020/05/28 14:30:44+00,2020/06/01 18:30:06+00,2020/06/17 14:30:44+00,2020/05/28 14:30:44+00,1,2020/06/01 18:29:00+00,,Closed,,20-00185422,Standard,1506 MONTELLO AVENUE NE,401074.56,137661.77,38.90681421,-76.98761108,WASHINGTON,DC,20002,62361,5
-77.0224706322201,38.941752718727,67,S0311,Rodent Inspection and Treatment,DOH- Department Of Health,DOH,1,2020/05/30 09:48:44+00,2020/06/02 13:33:08+00,2020/06/18 09:48:44+00,2020/05/30 09:48:44+00,1,2020/06/02 13:33:07+00,,Closed,,20-00187701,Standard,720 UPSHUR STREET NW,398052.15,141539.58,38.94174526,-77.02246834,WASHINGTON,DC,20011,249749,4
-76.9876357368375,38.9067741969166,68,S0311,Rodent Inspection and Treatment,DOH- Department Of Health,DOH,1,2020/05/29 12:33:17+00,2020/06/01 18:31:40+00,2020/06/18 12:33:16+00,2020/05/29 12:33:17+00,1,2020/06/01 18:30:00+00,,Closed,,20-00186705,Standard,1504 MONTELLO AVENUE NE,401072.62,137656.5,38.90676674,-76.98763346,WASHINGTON,DC,20002,62495,5
-77.0161371496742,38.9519910464217,69,S0311,Rodent Inspection and Treatment,DOH- Department Of Health,DOH,1,2020/05/30 12:10:25+00,2020/06/03 16:11:11+00,2020/06/18 12:10:25+00,2020/05/30 12:10:25+00,1,2020/06/03 23:25:00+00,,Closed,,20-00187810,Standard,5028 3RD STREET NW,398601.42,142676.01,38.95198358,-77.01613486,WASHINGTON,DC,20011,243777,4
-76.9817417035726,38.866348581884,70,S0311,Rodent Inspection and Treatment,DOH- Department Of Health,DOH,1,2020/05/28 10:50:26+00,2020/06/01 18:05:01+00,2020/06/17 10:50:26+00,2020/05/28 10:50:26+00,1,2020/06/01 11:10:00+00,,Closed,,20-00184911,Standard,1614 GOOD HOPE ROAD SE,401584.74,133169.03,38.86634113,-76.98173943,WASHINGTON,DC,20020,59842,8
-77.0311359130445,38.9652524986462,71,S0311,Rodent Inspection and Treatment,DOH- Department Of Health,DOH,1,2020/05/28 10:50:32+00,2020/06/02 09:34:03+00,2020/06/17 10:50:32+00,2020/05/28 10:50:32+00,1,2020/05/29 01:26:00+00,,Closed,,20-00184912,Standard,1334 RITTENHOUSE STREET NW,397301.82,144148.49,38.96524503,-77.03113362,WASHINGTON,DC,20011,257708,4
-77.0733399620605,38.9151560767946,72,S0311,Rodent Inspection and Treatment,DOH- Department Of Health,DOH,1,2020/05/23 21:52:36+00,2020/05/28 09:31:54+00,2020/06/11 21:52:36+00,2020/05/23 21:52:36+00,1,2020/05/27 11:18:00+00,,Closed,,20-00179823,Standard,3712 T STREET NW,393639.76,138589.44,38.91514862,-77.07333766,WASHINGTON,DC,20007,270619,2
-77.0003234421323,38.8457634072759,73,S0311,Rodent Inspection and Treatment,DOH- Department Of Health,DOH,1,2020/05/28 19:20:16+00,2020/06/01 18:06:55+00,2020/06/17 19:20:16+00,2020/05/28 19:20:16+00,1,2020/06/01 13:10:00+00,,Closed,,20-00185875,Standard,516 OAKWOOD STREET SE,399972.12,130883.77,38.84575596,-77.00032116,WASHINGTON,DC,20032,12281,8
-77.0226952822752,38.9158691800341,74,S0311,Rodent Inspection and Treatment,DOH- Department Of Health,DOH,1,2020/05/25 16:56:58+00,2020/06/03 10:22:26+00,2020/06/12 16:56:58+00,2020/05/25 16:56:58+00,1,2020/06/03 10:15:00+00,,Closed,,20-00180719,Standard,1907 8TH STREET NW,398031.96,138666.29,38.91586172,-77.02269299,WASHINGTON,DC,20001,238383,1
-77.0045426526578,38.9161197459119,75,S0311,Rodent Inspection and Treatment,DOH- Department Of Health,DOH,1,2020/05/28 14:18:27+00,2020/06/01 06:59:08+00,2020/06/17 14:18:27+00,2020/05/28 14:18:27+00,1,2020/06/01 06:58:00+00,,Closed,,20-00185385,Standard,159 TODD PLACE NE,399606.24,138693.87,38.91611229,-77.00454037,WASHINGTON,DC,20002,60674,5
-77.0177527440071,38.9422979915935,76,S0311,Rodent Inspection and Treatment,DOH- Department Of Health,DOH,1,2020/05/30 20:09:18+00,2020/06/02 12:55:29+00,2020/06/18 20:09:18+00,2020/05/30 20:09:18+00,1,2020/06/02 12:55:28+00,,Closed,,20-00188118,Standard,411 UPSHUR STREET NW,398461.17,141600.02,38.94229053,-77.01775045,WASHINGTON,DC,20011,248059,4
-77.0094837027307,38.9142850819138,77,S0311,Rodent Inspection and Treatment,DOH- Department Of Health,DOH,1,2020/05/30 20:56:49+00,2020/06/02 10:57:32+00,2020/06/18 20:56:49+00,2020/05/30 20:56:49+00,1,2020/06/02 10:57:31+00,,Closed,,20-00188132,Standard,7 S STREET NW,399177.71,138490.24,38.91427763,-77.00948142,WASHINGTON,DC,20001,227093,5
-76.9995018823392,38.9608837671856,78,S0311,Rodent Inspection and Treatment,DOH- Department Of Health,DOH,1,2020/05/30 20:57:13+00,2020/06/03 16:01:51+00,2020/06/18 20:57:13+00,2020/05/30 20:57:13+00,1,2020/06/03 14:50:00+00,,Closed,,20-00188133,Standard,536 RIGGS ROAD NE,400043.37,143663.06,38.9608763,-76.9994996,WASHINGTON,DC,20011,9663,4
-77.0181338649676,38.9423113554362,79,S0311,Rodent Inspection and Treatment,DOH- Department Of Health,DOH,1,2020/05/30 21:21:56+00,2020/06/02 12:59:04+00,2020/06/17 21:21:55+00,2020/05/30 21:21:56+00,1,2020/06/02 12:59:04+00,,Closed,,20-00188140,Standard,423 UPSHUR STREET NW,398428.13,141601.51,38.94230389,-77.01813157,WASHINGTON,DC,20011,248065,4
-77.0023215416691,38.8827901364832,80,S0311,Rodent Inspection and Treatment,DOH- Department Of Health,DOH,1,2020/05/30 21:51:15+00,2020/06/02 14:59:56+00,2020/06/18 21:51:15+00,2020/05/30 21:51:15+00,1,2020/06/02 14:58:00+00,,Closed,,20-00188153,Standard,511 3RD STREET SE,399798.77,134994.01,38.88278269,-77.00231926,WASHINGTON,DC,20003,13292,6
-76.9470282048357,38.8659243282409,81,S0311,Rodent Inspection and Treatment,DOH- Department Of Health,DOH,1,2020/05/27 12:33:10+00,2020/05/29 12:23:51+00,2020/06/16 12:33:10+00,2020/05/27 12:33:10+00,1,2020/05/30 00:22:00+00,,Closed,,20-00183495,Standard,3926 R STREET SE,404597.37,133123.11,38.86591688,-76.94702594,WASHINGTON,DC,20020,29112,7
-77.0432292936785,38.9343735928161,82,S0311,Rodent Inspection and Treatment,DOH- Department Of Health,DOH,1,2020/05/22 21:02:14+00,2020/05/26 14:24:55+00,2020/06/11 21:02:14+00,2020/05/22 21:02:14+00,1,2020/05/26 14:24:55+00,,Closed,,20-00179163,Standard,1861 NEWTON STREET NW,396252.13,140721.08,38.93436613,-77.04322699,WASHINGTON,DC,20010,233858,1
-77.0157030686382,38.9134307814139,83,S0311,Rodent Inspection and Treatment,DOH- Department Of Health,DOH,1,2020/05/23 04:48:04+00,2020/05/28 11:42:22+00,2020/06/12 04:48:04+00,2020/05/23 04:48:04+00,1,2020/05/28 11:42:22+00,,Closed,,20-00179223,Standard,310 FLORIDA AVENUE NW,398638.31,138395.48,38.91342333,-77.01570078,WASHINGTON,DC,20001,237610,5
-77.0000708248869,38.9624998492575,84,S0311,Rodent Inspection and Treatment,DOH- Department Of Health,DOH,1,2020/05/23 18:32:46+00,2020/05/29 08:23:59+00,2020/06/12 18:32:46+00,2020/05/23 18:32:46+00,1,2020/05/29 11:08:00+00,,Closed,,20-00179721,Standard,501 PEABODY STREET NE,399994.06,143842.46,38.96249238,-77.00006854,WASHINGTON,DC,20011,15269,4
-77.0259750591962,38.9559837212758,85,S0311,Rodent Inspection and Treatment,DOH- Department Of Health,DOH,1,2020/05/24 00:45:46+00,2020/05/27 11:44:24+00,2020/06/12 00:45:46+00,2020/05/24 00:45:46+00,1,2020/05/27 11:44:23+00,,Closed,,20-00179877,Standard,5418 9TH STREET NW,397748.79,143119.43,38.95597626,-77.02597276,WASHINGTON,DC,20011,254572,4
-76.991313787555,38.8956029026075,86,S0311,Rodent Inspection and Treatment,DOH- Department Of Health,DOH,1,2020/05/31 13:43:20+00,2020/06/02 12:52:04+00,2020/06/18 13:43:20+00,2020/05/31 13:43:20+00,1,2020/06/03 00:47:00+00,,Closed,,20-00188363,Standard,431 11TH STREET NE,400753.72,136416.36,38.89559545,-76.99131151,WASHINGTON,DC,20002,23717,6
-77.0235175468634,38.9379152497137,87,S0311,Rodent Inspection and Treatment,DOH- Department Of Health,DOH,1,2020/05/27 10:55:51+00,2020/05/29 09:16:06+00,2020/06/16 10:55:51+00,2020/05/27 10:55:51+00,1,2020/05/29 09:16:05+00,,Closed,,20-00183287,Standard,3800 NEW HAMPSHIRE AVENUE NW,397961.28,141113.61,38.93790779,-77.02351525,WASHINGTON,DC,20011,252566,4
-77.067027366523,38.9694772546971,88,S0311,Rodent Inspection and Treatment,DOH- Department Of Health,DOH,1,2020/05/27 11:31:07+00,2020/05/29 08:18:48+00,2020/06/16 11:31:07+00,2020/05/27 11:31:07+00,1,2020/05/29 13:49:00+00,,Closed,,20-00183372,Standard,3302 RITTENHOUSE STREET NW,394191.65,144619.15,38.96946979,-77.06702506,WASHINGTON,DC,20015,262007,4
-77.0038029513103,38.9614967181756,89,S0311,Rodent Inspection and Treatment,DOH- Department Of Health,DOH,1,2020/05/28 11:56:06+00,2020/06/02 09:52:01+00,2020/06/17 11:56:05+00,2020/05/28 11:56:06+00,1,2020/05/29 14:41:00+00,,Closed,,20-00185039,Standard,228 OGLETHORPE STREET NE,399670.6,143731.11,38.96148925,-77.00380066,WASHINGTON,DC,20011,49251,4
-77.0203047933175,38.9355474800265,90,S0311,Rodent Inspection and Treatment,DOH- Department Of Health,DOH,1,2020/05/26 19:15:17+00,2020/05/27 07:39:26+00,2020/06/15 19:15:17+00,2020/05/26 19:15:17+00,1,2020/05/27 07:39:26+00,,Closed,,20-00182570,Standard,628 PRINCETON PLACE NW,398239.76,140850.7,38.93554002,-77.0203025,WASHINGTON,DC,20010,228525,1
-76.9944762109938,38.8423321401145,91,S0311,Rodent Inspection and Treatment,DOH- Department Of Health,DOH,1,2020/05/22 17:22:16+00,2020/05/26 16:49:21+00,2020/06/12 17:22:16+00,2020/05/22 17:22:16+00,1,2020/05/26 11:15:00+00,,Closed,,20-00179019,Standard,828 WHEELER HILL DRIVE SE,400479.74,130502.89,38.8423247,-76.99447393,WASHINGTON,DC,20032,145955,8
-77.0023950332174,38.9227493989191,92,S0311,Rodent Inspection and Treatment,DOH- Department Of Health,DOH,1,2020/05/29 07:21:47+00,2020/06/04 06:42:18+00,2020/06/18 07:21:46+00,2020/05/29 07:21:47+00,1,2020/06/04 06:42:00+00,,Closed,,20-00186058,Standard,233 CROMWELL TERRACE NE,399792.51,139429.81,38.92274194,-77.00239275,WASHINGTON,DC,20002,48435,5
-77.0193526244419,38.9166981878934,93,S0311,Rodent Inspection and Treatment,DOH- Department Of Health,DOH,1,2020/06/19 13:55:53+00,1970/01/01 00:00:00+00,2020/07/10 13:55:52+00,2020/06/19 13:55:53+00,,1970/01/01 00:00:00+00,,Open,,20-00213872,Standard,515 U STREET NW,398321.87,138758.25,38.9166904,-77.01935033,WASHINGTON,DC,20001,243174,1
-77.0301908280411,38.9139028555695,94,S0311,Rodent Inspection and Treatment,DOH- Department Of Health,DOH,1,2020/05/31 17:10:19+00,2020/06/02 14:42:25+00,2020/06/18 17:10:19+00,2020/05/31 17:10:19+00,1,2020/06/02 11:22:00+00,,Closed,,20-00188464,Standard,1310 S STREET NW,397381.84,138448.2,38.91389507,-77.03018853,WASHINGTON,DC,20009,240496,2
-77.0101081937024,38.9077699260858,95,S0311,Rodent Inspection and Treatment,DOH- Department Of Health,DOH,1,2020/06/10 14:20:44+00,1970/01/01 00:00:00+00,2020/06/30 14:20:43+00,2020/06/10 14:20:44+00,,1970/01/01 00:00:00+00,,Open,,20-00202536,Standard,30 HANOVER PLACE NW,399123.47,137767.01,38.90776247,-77.01010591,WASHINGTON,DC,20001,236967,5
-76.9834035528859,38.8959238256185,96,S0311,Rodent Inspection and Treatment,DOH- Department Of Health,DOH,1,2020/06/08 09:44:27+00,2020/06/09 18:26:46+00,2020/06/26 09:44:27+00,2020/06/08 09:44:27+00,1,2020/06/10 12:36:39+00,,Closed,,20-00198516,Standard,437 15TH STREET NE,401439.92,136452.08,38.89591637,-76.98340127,WASHINGTON,DC,20002,22782,6
-77.0293995442782,38.9391982309921,97,S0311,Rodent Inspection and Treatment,DOH- Department Of Health,DOH,1,2020/06/19 12:22:17+00,1970/01/01 00:00:00+00,2020/07/10 12:22:17+00,2020/06/19 12:22:17+00,,1970/01/01 00:00:00+00,,Open,,20-00213720,Standard,3915 13TH STREET NW,397451.37,141256.18,38.93919077,-77.02939725,WASHINGTON,DC,20011,223582,4
-77.0531326673484,38.8997467001063,98,S0311,Rodent Inspection and Treatment,DOH- Department Of Health,DOH,1,2020/06/19 12:22:49+00,1970/01/01 00:00:00+00,2020/07/10 12:22:49+00,2020/06/19 12:22:49+00,,1970/01/01 00:00:00+00,,Open,,20-00213724,Standard,801 25TH STREET NW,395391.25,136877.66,38.89973925,-77.05313037,WASHINGTON,DC,20037,274034,2
-76.981364435106,38.8889077074656,99,S0311,Rodent Inspection and Treatment,DOH- Department Of Health,DOH,1,2020/05/22 19:14:16+00,2020/05/28 08:54:49+00,2020/06/12 19:14:16+00,2020/05/22 19:14:16+00,1,2020/05/28 08:36:00+00,,Closed,,20-00179100,Standard,1614 A STREET SE,401616.97,135673.27,38.88890026,-76.98136216,WASHINGTON,DC,20003,59829,6
-77.0238218367778,38.9565980030673,100,S0311,Rodent Inspection and Treatment,DOH- Department Of Health,DOH,1,2020/05/24 18:22:38+00,2020/05/26 12:15:49+00,2020/06/12 18:22:38+00,2020/05/24 18:22:38+00,1,2020/05/26 12:15:48+00,,Closed,,20-00180155,Standard,5505 8TH STREET NW,397935.44,143187.57,38.95659054,-77.02381954,WASHINGTON,DC,20011,250288,4
-77.000067926305,38.8307504576912,101,S0311,Rodent Inspection and Treatment,DOH- Department Of Health,DOH,1,2020/06/15 10:20:23+00,1970/01/01 00:00:00+00,2020/07/06 10:20:23+00,2020/06/15 10:20:23+00,,1970/01/01 00:00:00+00,,Open,,20-00207692,Standard,411 ATLANTIC STREET SE,399994.3,129217.23,38.83074302,-77.00006565,WASHINGTON,DC,20032,26768,8
-77.0124050326296,38.9100859306446,102,S0311,Rodent Inspection and Treatment,DOH- Department Of Health,DOH,1,2020/06/01 11:24:26+00,2020/06/02 09:50:16+00,2020/06/19 11:24:26+00,2020/06/01 11:24:26+00,1,2020/06/02 09:50:15+00,,Closed,,20-00189201,Standard,1514 1ST STREET NW,398924.29,138024.13,38.91007848,-77.01240274,WASHINGTON,DC,20001,238167,5
-77.0008337751153,38.9165076400642,103,S0311,Rodent Inspection and Treatment,DOH- Department Of Health,DOH,1,2020/05/27 12:46:03+00,2020/06/02 07:50:02+00,2020/06/16 12:46:02+00,2020/05/27 12:46:03+00,1,2020/06/02 07:49:00+00,,Closed,,20-00183533,Standard,1924 4TH STREET NE,399927.89,138736.92,38.91650018,-77.00083149,WASHINGTON,DC,20002,53852,5
-77.0320459120492,38.9374011908694,104,S0311,Rodent Inspection and Treatment,DOH- Department Of Health,DOH,1,2020/06/01 00:49:50+00,2020/06/10 09:02:12+00,2020/06/19 00:49:50+00,2020/06/01 00:49:50+00,1,2020/06/09 11:45:00+00,,Closed,,20-00188643,Standard,1368 QUINCY STREET NW,397221.87,141056.77,38.9373934,-77.03204362,WASHINGTON,DC,20011,225234,4
-77.0216824338575,38.9671106932501,105,S0311,Rodent Inspection and Treatment,DOH- Department Of Health,DOH,1,2020/06/16 13:13:48+00,1970/01/01 00:00:00+00,2020/07/07 13:13:48+00,2020/06/16 13:13:48+00,,1970/01/01 00:00:00+00,,Open,,20-00209484,Standard,610 TUCKERMAN STREET NW,398121.15,144354.53,38.96710323,-77.02168014,WASHINGTON,DC,20011,251510,4
-77.028408266437,38.9250148959881,106,S0311,Rodent Inspection and Treatment,DOH- Department Of Health,DOH,1,2020/06/16 13:14:35+00,2020/06/19 11:33:50+00,2020/07/07 13:14:35+00,2020/06/16 13:14:35+00,1,2020/06/19 11:20:00+00,,Closed,,20-00209489,Standard,1213 FAIRMONT STREET NW,397536.82,139681.68,38.92500744,-77.02840597,WASHINGTON,DC,20009,231794,1
-76.9852592848359,38.8790440812978,107,S0311,Rodent Inspection and Treatment,DOH- Department Of Health,DOH,1,2020/06/16 13:18:45+00,1970/01/01 00:00:00+00,2020/07/07 13:18:45+00,2020/06/16 13:18:45+00,,1970/01/01 00:00:00+00,,Open,,20-00209493,Standard,936 14TH STREET SE,401279.24,134578.27,38.8790363,-76.98525701,WASHINGTON,DC,20003,82815,6
-77.0124045860721,38.910170068624,108,S0311,Rodent Inspection and Treatment,DOH- Department Of Health,DOH,1,2020/06/01 10:45:54+00,2020/06/02 09:48:02+00,2020/06/19 10:45:54+00,2020/06/01 10:45:54+00,1,2020/06/02 09:48:01+00,,Closed,,20-00189105,Standard,1518 1ST STREET NW,398924.33,138033.47,38.91016261,-77.0124023,WASHINGTON,DC,20001,238165,5
-77.0178240014031,38.9403362451177,109,S0311,Rodent Inspection and Treatment,DOH- Department Of Health,DOH,1,2020/06/01 16:59:16+00,2020/06/03 12:41:07+00,2020/06/19 16:59:16+00,2020/06/01 16:59:16+00,1,2020/06/03 12:41:06+00,,Closed,,20-00189989,Standard,4008 ILLINOIS AVENUE NW,398454.95,141382.25,38.94032878,-77.01782171,WASHINGTON,DC,20011,247980,4
-77.0099833970098,38.9675460245142,110,S0311,Rodent Inspection and Treatment,DOH- Department Of Health,DOH,1,2020/06/01 17:04:24+00,2020/06/03 15:51:15+00,2020/06/19 17:04:24+00,2020/06/01 17:04:24+00,1,2020/06/02 14:49:00+00,,Closed,,20-00190001,Standard,29 TUCKERMAN STREET NW,399135.02,144402.68,38.96753856,-77.00998111,WASHINGTON,DC,20011,245469,4
-76.9314352095084,38.8762660639835,111,S0311,Rodent Inspection and Treatment,DOH- Department Of Health,DOH,1,2020/06/17 16:36:57+00,2020/06/18 15:10:29+00,2020/07/08 16:36:57+00,2020/06/17 16:36:57+00,1,2020/06/19 00:30:00+00,,Closed,,20-00211370,Standard,4651 HILLSIDE ROAD SE,405949.75,134272.02,38.87625861,-76.93143295,WASHINGTON,DC,20019,18491,7
-77.024926619604,38.907019020234,112,S0311,Rodent Inspection and Treatment,DOH- Department Of Health,DOH,1,2020/06/05 11:38:07+00,2020/06/05 13:35:35+00,2020/06/25 11:38:07+00,2020/06/05 11:38:07+00,1,2020/06/05 13:31:00+00,,Closed,,20-00196145,Standard,924 N STREET NW,397838.18,137683.9,38.90701157,-77.02492433,WASHINGTON,DC,20001,239768,2
-77.0516563192977,38.9272145105192,113,S0311,Rodent Inspection and Treatment,DOH- Department Of Health,DOH,1,2020/06/15 11:49:14+00,2020/06/18 17:18:07+00,2020/07/06 11:49:14+00,2020/06/15 11:49:14+00,1,2020/06/18 11:01:00+00,,Closed,,20-00207901,Standard,2262 CATHEDRAL AVENUE NW,395521.04,139926.74,38.92720705,-77.05165402,WASHINGTON,DC,20008,219123,3
-76.9818657602601,38.897813642214,114,S0311,Rodent Inspection and Treatment,DOH- Department Of Health,DOH,1,2020/06/15 11:57:23+00,2020/06/16 09:19:26+00,2020/07/06 11:57:23+00,2020/06/15 11:57:23+00,1,2020/06/16 09:19:51+00,,Closed,,20-00207914,Standard,615 16TH STREET NE,401573.28,136661.89,38.89780619,-76.98186348,WASHINGTON,DC,20002,307223,6
-76.9931524621464,38.9516396464458,115,S0311,Rodent Inspection and Treatment,DOH- Department Of Health,DOH,1,2020/06/20 12:24:20+00,1970/01/01 00:00:00+00,2020/07/10 12:24:19+00,2020/06/20 12:24:20+00,,1970/01/01 00:00:00+00,,Open,,20-00214661,Standard,5054 10TH STREET NE,400593.75,142636.9,38.95163185,-76.99315018,WASHINGTON,DC,20017,14076,5
-77.0216587275535,38.96846067322,116,S0311,Rodent Inspection and Treatment,DOH- Department Of Health,DOH,1,2020/05/26 13:57:56+00,2020/05/29 08:17:34+00,2020/06/15 13:57:56+00,2020/05/26 13:57:56+00,1,2020/05/28 14:45:00+00,,Closed,,20-00181913,Standard,608 UNDERWOOD STREET NW,398123.24,144504.39,38.96845321,-77.02165643,WASHINGTON,DC,20012,251437,4
-77.0099731740657,38.9703540747613,117,S0311,Rodent Inspection and Treatment,DOH- Department Of Health,DOH,1,2020/05/26 14:23:36+00,2020/05/29 08:31:32+00,2020/06/15 14:23:36+00,2020/05/26 14:23:36+00,1,2020/05/28 15:25:00+00,,Closed,,20-00182001,Standard,35 VAN BUREN STREET NW,399135.94,144714.4,38.97034627,-77.00997088,WASHINGTON,DC,20012,245318,4
-76.9558592562114,38.8902347246609,118,S0311,Rodent Inspection and Treatment,DOH- Department Of Health,DOH,1,2020/06/09 16:31:31+00,2020/06/10 13:54:23+00,2020/06/29 16:31:31+00,2020/06/09 16:31:31+00,1,2020/06/10 13:53:00+00,,Closed,,20-00201182,Standard,10 35TH STREET NE,403829.66,135821.34,38.89022727,-76.95585699,WASHINGTON,DC,20019,76027,7
-76.9917775613278,38.8914011617932,119,S0311,Rodent Inspection and Treatment,DOH- Department Of Health,DOH,1,2020/06/16 11:14:12+00,2020/06/17 14:50:55+00,2020/07/07 11:14:12+00,2020/06/16 11:14:12+00,1,2020/06/17 14:51:13+00,,Closed,,20-00209241,Standard,134 11TH STREET NE,400713.53,135949.93,38.89139371,-76.99177528,WASHINGTON,DC,20002,66754,6
-77.0247915956984,38.9590482290721,120,S0311,Rodent Inspection and Treatment,DOH- Department Of Health,DOH,1,2020/06/16 11:15:38+00,1970/01/01 00:00:00+00,2020/07/07 11:15:38+00,2020/06/16 11:15:38+00,,1970/01/01 00:00:00+00,,Open,,20-00209247,Standard,810 MARIETTA PLACE NW,397851.46,143459.59,38.95904076,-77.0247893,WASHINGTON,DC,20011,254347,4
-77.0097572367851,38.9077668030064,121,S0311,Rodent Inspection and Treatment,DOH- Department Of Health,DOH,1,2020/06/06 11:06:04+00,2020/06/10 09:09:38+00,2020/06/25 11:06:04+00,2020/06/06 11:06:04+00,1,2020/06/10 09:09:38+00,,Closed,,20-00197278,Standard,10 1/2 HANOVER PLACE NW,399153.91,137766.66,38.90775935,-77.00975495,WASHINGTON,DC,20001,278096,5
-76.9389126431135,38.9013467521736,122,S0311,Rodent Inspection and Treatment,DOH- Department Of Health,DOH,1,2020/06/19 12:39:11+00,1970/01/01 00:00:00+00,2020/07/10 12:39:11+00,2020/06/19 12:39:11+00,,1970/01/01 00:00:00+00,,Open,,20-00213751,Standard,4401 JAY STREET NE,405299.05,137055.71,38.9013393,-76.93891038,WASHINGTON,DC,20019,22336,7
-77.0290527995987,38.9269870186372,123,S0311,Rodent Inspection and Treatment,DOH- Department Of Health,DOH,1,2020/06/15 14:21:09+00,2020/06/17 10:40:53+00,2020/07/06 14:21:09+00,2020/06/15 14:21:09+00,1,2020/06/17 10:40:53+00,,Closed,,20-00208174,Standard,1223 HARVARD STREET NW,397481,139900.62,38.92697956,-77.02905051,WASHINGTON,DC,20009,231503,1
-77.0025072715899,38.9138627688134,124,S0311,Rodent Inspection and Treatment,DOH- Department Of Health,DOH,1,2020/06/15 14:25:32+00,1970/01/01 00:00:00+00,2020/07/06 14:25:32+00,2020/06/15 14:25:32+00,,1970/01/01 00:00:00+00,,Open,,20-00208186,Standard,229 S STREET NE,399782.75,138443.32,38.91385531,-77.00250499,WASHINGTON,DC,20002,49078,5
-77.0552655703039,38.9694843959449,125,S0311,Rodent Inspection and Treatment,DOH- Department Of Health,DOH,1,2020/05/29 16:16:02+00,2020/06/03 15:48:40+00,2020/06/18 16:16:02+00,2020/05/29 16:16:02+00,1,2020/06/03 00:34:00+00,,Closed,,20-00187249,Standard,5748 26TH STREET NW,395210.92,144619.26,38.96947693,-77.05526327,WASHINGTON,DC,20015,260086,4
-76.9888785466918,38.9004235219462,126,S0311,Rodent Inspection and Treatment,DOH- Department Of Health,DOH,1,2020/06/05 03:45:56+00,2020/06/09 18:21:26+00,2020/06/25 03:45:56+00,2020/06/05 03:45:56+00,1,2020/06/10 12:33:46+00,,Closed,,20-00195551,Standard,1240 H STREET NE,400964.91,136951.51,38.90041607,-76.98887627,WASHINGTON,DC,20002,69916,6
-77.0049634711684,38.8855090550481,127,S0311,Rodent Inspection and Treatment,DOH- Department Of Health,DOH,1,2020/06/05 19:15:23+00,2020/06/09 11:31:49+00,2020/06/25 19:15:23+00,2020/06/05 19:15:23+00,1,2020/06/09 12:19:22+00,,Closed,,20-00196920,Standard,116 RUMSEY COURT SE,399569.56,135295.84,38.8855016,-77.00496119,WASHINGTON,DC,20003,289622,6
-77.0245533203711,38.9278422191047,128,S0311,Rodent Inspection and Treatment,DOH- Department Of Health,DOH,1,2020/06/12 14:13:19+00,2020/06/16 19:08:53+00,2020/07/02 14:13:19+00,2020/06/12 14:13:19+00,1,2020/06/16 19:06:00+00,,Closed,,20-00205631,Standard,748 COLUMBIA ROAD NW,397871.18,139995.44,38.92783476,-77.02455103,WASHINGTON,DC,20001,232716,1
-76.9961693968661,38.9471125843375,129,S0311,Rodent Inspection and Treatment,DOH- Department Of Health,DOH,1,2020/06/12 14:18:00+00,2020/06/16 10:59:01+00,2020/07/02 14:17:59+00,2020/06/12 14:18:00+00,1,2020/06/16 10:59:01+00,,Closed,,20-00205643,Standard,715 CRITTENDEN STREET NE,400332.26,142134.34,38.94710512,-76.99616711,WASHINGTON,DC,20017,77289,5
-77.0278400412096,38.9107560152331,130,S0311,Rodent Inspection and Treatment,DOH- Department Of Health,DOH,1,2020/06/12 17:32:39+00,2020/06/16 09:30:12+00,2020/07/02 17:32:39+00,2020/06/12 17:32:39+00,1,2020/06/15 11:42:00+00,,Closed,,20-00206012,Standard,1519 12TH STREET NW,397585.61,138098.81,38.91074856,-77.02783775,WASHINGTON,DC,20005,225668,2
-76.9924359572238,38.9035074571126,131,S0311,Rodent Inspection and Treatment,DOH- Department Of Health,DOH,1,2020/05/29 09:17:58+00,2020/06/02 12:30:31+00,2020/06/18 09:17:58+00,2020/05/29 09:17:58+00,1,2020/06/03 00:27:00+00,,Closed,,20-00186230,Standard,1003 FLORIDA AVENUE NE,400656.3,137293.82,38.9035,-76.99243368,WASHINGTON,DC,20002,76253,6
-77.0197833367462,38.9400942373822,132,S0311,Rodent Inspection and Treatment,DOH- Department Of Health,DOH,1,2020/05/29 10:53:37+00,2020/06/02 14:08:54+00,2020/06/18 10:53:37+00,2020/05/29 10:53:37+00,1,2020/06/02 14:08:53+00,,Closed,,20-00186488,Standard,517 SHEPHERD STREET NW,398285.08,141355.42,38.94008678,-77.01978104,WASHINGTON,DC,20011,247642,4
-76.9963694667103,38.8307624726515,133,S0311,Rodent Inspection and Treatment,DOH- Department Of Health,DOH,1,2020/05/22 15:17:05+00,2020/05/26 16:51:07+00,2020/06/12 15:17:05+00,2020/05/22 15:17:05+00,1,2020/05/27 00:18:00+00,,Closed,,20-00178772,Standard,701 ATLANTIC STREET SE,400315.43,129218.57,38.83075503,-76.99636719,WASHINGTON,DC,20032,342,8
-77.023676644658,38.9362975072872,134,S0311,Rodent Inspection and Treatment,DOH- Department Of Health,DOH,1,2020/06/08 19:23:40+00,2020/06/09 08:01:51+00,2020/06/26 19:23:40+00,2020/06/08 19:23:40+00,1,2020/06/09 08:01:50+00,,Closed,,20-00199559,Standard,758 ROCK CREEK CHURCH ROAD NW,397947.44,140934.03,38.93629005,-77.02367435,WASHINGTON,DC,20010,228330,1
-77.0399703858435,38.9235942340864,135,S0311,Rodent Inspection and Treatment,DOH- Department Of Health,DOH,1,2020/05/26 16:00:56+00,2020/05/27 09:56:41+00,2020/06/15 16:00:56+00,2020/05/26 16:00:56+00,1,2020/05/27 09:54:00+00,,Closed,,20-00182282,Standard,2519 ONTARIO ROAD NW,396534.16,139524.35,38.92358678,-77.03996809,WASHINGTON,DC,20009,235728,1
-77.0262648442617,38.9527697764454,136,S0311,Rodent Inspection and Treatment,DOH- Department Of Health,DOH,1,2020/06/15 09:52:21+00,1970/01/01 00:00:00+00,2020/07/06 09:52:21+00,2020/06/15 09:52:21+00,,1970/01/01 00:00:00+00,,Open,,20-00207629,Standard,908 HAMILTON STREET NW,397723.57,142762.66,38.95276231,-77.02626255,WASHINGTON,DC,20011,251727,4
-77.044122127446,38.9209642011847,137,S0311,Rodent Inspection and Treatment,DOH- Department Of Health,DOH,1,2020/06/15 09:54:22+00,1970/01/01 00:00:00+00,2020/07/06 09:54:22+00,2020/06/15 09:54:22+00,,1970/01/01 00:00:00+00,,Open,,20-00207639,Standard,1851 COLUMBIA ROAD NW,396174,139232.56,38.92095641,-77.04411983,WASHINGTON,DC,20009,226501,1
-76.9926466433513,38.8962555602138,138,S0311,Rodent Inspection and Treatment,DOH- Department Of Health,DOH,1,2020/05/26 15:58:26+00,2020/06/02 13:55:03+00,2020/06/15 15:58:26+00,2020/05/26 15:58:26+00,1,2020/06/02 13:54:00+00,,Closed,,20-00182275,Standard,500 - 509 BLOCK OF 10TH STREET NE,400638.089999998,136488.800003315,38.896247772532,-76.9926443623332,WASHINGTON,DC,20002,812458,6
-77.0375798484527,38.9306881755218,139,S0311,Rodent Inspection and Treatment,DOH- Department Of Health,DOH,1,2020/06/01 16:12:57+00,2020/06/02 13:10:44+00,2020/06/19 16:12:57+00,2020/06/01 16:12:57+00,1,2020/06/02 13:10:43+00,,Closed,,20-00189913,Standard,1620 LAMONT STREET NW,396741.78,140311.75,38.93068072,-77.03757755,WASHINGTON,DC,20010,236416,1
-77.0211369512019,38.9576673498369,140,S0311,Rodent Inspection and Treatment,DOH- Department Of Health,DOH,1,2020/06/08 23:36:48+00,2020/06/09 13:47:15+00,2020/06/28 23:36:48+00,2020/06/08 23:36:48+00,1,2020/06/09 13:47:14+00,,Closed,,20-00199689,Standard,605 LONGFELLOW STREET NW,398168.18,143306.22,38.95765989,-77.02113466,WASHINGTON,DC,20011,246630,4
-77.0334485633255,38.9213616780268,141,S0311,Rodent Inspection and Treatment,DOH- Department Of Health,DOH,1,2020/06/12 10:49:23+00,2020/06/19 22:48:21+00,2020/07/02 10:49:23+00,2020/06/12 10:49:23+00,1,2020/06/19 22:47:00+00,,Closed,,20-00205189,Standard,1428 CHAPIN STREET NW,397099.61,139276.29,38.92135422,-77.03344627,WASHINGTON,DC,20009,234164,1
-77.0228088321139,38.9507505766975,142,S0311,Rodent Inspection and Treatment,DOH- Department Of Health,DOH,1,2020/06/17 05:56:34+00,1970/01/01 00:00:00+00,2020/07/08 05:56:34+00,2020/06/17 05:56:34+00,,1970/01/01 00:00:00+00,,Open,,20-00210279,Standard,716 FARRAGUT STREET NW,398023.08,142538.43,38.95074311,-77.02280654,WASHINGTON,DC,20011,250000,4
-77.0337347503702,38.9568897728493,143,S0311,Rodent Inspection and Treatment,DOH- Department Of Health,DOH,1,2020/06/17 08:54:12+00,1970/01/01 00:00:00+00,2020/07/08 08:54:12+00,2020/06/17 08:54:12+00,,1970/01/01 00:00:00+00,,Open,,20-00210438,Standard,5514 14TH STREET NW,397076.25,143220.23,38.95688231,-77.03373245,WASHINGTON,DC,20011,255912,4
-77.0061154027076,38.8375543876743,144,S0311,Rodent Inspection and Treatment,DOH- Department Of Health,DOH,1,2020/06/01 11:41:59+00,2020/06/11 08:56:20+00,2020/06/19 11:41:59+00,2020/06/01 11:41:59+00,1,2020/06/10 13:16:00+00,,Closed,,20-00189242,Standard,3700 MARTIN LUTHER KING JR AVENUE SE,399469.26,129972.53,38.83754695,-77.00611312,WASHINGTON,DC,20032,31932,8
-77.030180392179,38.9366514763193,145,S0311,Rodent Inspection and Treatment,DOH- Department Of Health,DOH,1,2020/05/29 10:31:27+00,2020/06/03 16:32:18+00,2020/06/18 10:31:27+00,2020/05/29 10:31:27+00,1,2020/06/04 00:51:00+00,,Closed,,20-00186441,Standard,1303 SPRING ROAD NW,397383.58,140973.49,38.93664402,-77.0301781,WASHINGTON,DC,20010,230134,4
-77.0247996240331,38.9575837542377,146,S0311,Rodent Inspection and Treatment,DOH- Department Of Health,DOH,1,2020/05/24 18:16:59+00,2020/05/27 11:35:52+00,2020/06/12 18:16:59+00,2020/05/24 18:16:59+00,1,2020/05/27 11:35:52+00,,Closed,,20-00180151,Standard,817 LONGFELLOW STREET NW,397850.72,143297.02,38.95757629,-77.02479733,WASHINGTON,DC,20011,254391,4
-77.0514210761347,38.9242062860238,147,S0311,Rodent Inspection and Treatment,DOH- Department Of Health,DOH,1,2020/05/24 18:17:46+00,2020/05/27 12:33:46+00,2020/06/12 18:17:46+00,2020/05/24 18:17:46+00,1,2020/05/27 12:33:45+00,,Closed,,20-00180152,Standard,2621 CONNECTICUT AVENUE NW,395541.25,139592.79,38.92419883,-77.05141878,WASHINGTON,DC,20008,302056,3
-77.0242826054582,38.9568396000117,148,S0311,Rodent Inspection and Treatment,DOH- Department Of Health,DOH,1,2020/05/24 18:18:59+00,2020/05/26 12:05:49+00,2020/06/12 18:18:59+00,2020/05/24 18:18:59+00,1,2020/05/26 12:05:49+00,,Closed,,20-00180154,Standard,5514 8TH STREET NW,397895.51,143214.4,38.95683214,-77.02428031,WASHINGTON,DC,20011,254467,4
-77.0002390277456,38.8867090768908,149,S0311,Rodent Inspection and Treatment,DOH- Department Of Health,DOH,1,2020/06/09 08:13:55+00,2020/06/10 12:30:08+00,2020/06/29 08:13:55+00,2020/06/09 08:13:55+00,1,2020/06/10 12:31:24+00,,Closed,,20-00199858,Standard,404 SEWARD SQUARE SE,399979.46,135429.04,38.88670163,-77.00023674,WASHINGTON,DC,20003,27441,6
-77.0228066783674,38.9245502132065,150,S0311,Rodent Inspection and Treatment,DOH- Department Of Health,DOH,1,2020/06/16 11:18:18+00,1970/01/01 00:00:00+00,2020/07/07 11:18:18+00,2020/06/16 11:18:18+00,,1970/01/01 00:00:00+00,,Open,,20-00209255,Standard,2610 GEORGIA AVENUE NW,398022.54,139629.96,38.92454276,-77.02280439,WASHINGTON,DC,20001,232410,1
-76.9958494817658,38.9574877607909,151,S0311,Rodent Inspection and Treatment,DOH- Department Of Health,DOH,1,2020/06/10 21:17:24+00,2020/06/18 18:05:04+00,2020/06/30 21:17:24+00,2020/06/10 21:17:24+00,1,2020/06/18 11:05:00+00,,Closed,,20-00203121,Standard,746 KENNEDY STREET NE,400359.94,143286.08,38.9574803,-76.9958472,WASHINGTON,DC,20011,78795,4
-77.0195932107585,38.9550768416863,152,S0311,Rodent Inspection and Treatment,DOH- Department Of Health,DOH,1,2020/06/11 08:04:24+00,2020/06/18 18:09:43+00,2020/07/01 08:04:24+00,2020/06/11 08:04:24+00,1,2020/06/18 11:26:00+00,,Closed,,20-00203258,Standard,5329 5TH STREET NW,398301.92,143018.62,38.95506938,-77.01959092,WASHINGTON,DC,20011,248657,4
-76.9726745793612,38.8972960350812,153,S0311,Rodent Inspection and Treatment,DOH- Department Of Health,DOH,1,2020/06/11 09:18:03+00,2020/06/16 14:57:51+00,2020/07/01 09:18:03+00,2020/06/11 09:18:03+00,1,2020/06/16 13:54:00+00,,Closed,,20-00203355,Standard,546 24TH STREET NE,402370.6,136604.63,38.89728858,-76.9726723,WASHINGTON,DC,20002,8596,7
-77.0516541946559,38.901834690405,154,S0311,Rodent Inspection and Treatment,DOH- Department Of Health,DOH,1,2020/06/10 16:32:33+00,2020/06/11 14:54:55+00,2020/06/30 16:32:32+00,2020/06/10 16:32:33+00,1,2020/06/11 11:26:00+00,,Closed,,20-00202856,Standard,942 24TH STREET NW,395519.63,137109.37,38.90182724,-77.0516519,WASHINGTON,DC,20037,273961,2
-77.0312019146127,38.965252300887,155,S0311,Rodent Inspection and Treatment,DOH- Department Of Health,DOH,1,2020/05/28 14:20:45+00,2020/06/02 09:35:34+00,2020/06/17 14:20:45+00,2020/05/28 14:20:45+00,1,2020/05/29 10:34:00+00,,Closed,,20-00185390,Standard,1336 RITTENHOUSE STREET NW,397296.1,144148.47,38.96524483,-77.03119962,WASHINGTON,DC,20011,257707,4
-77.0089251677486,38.970497750806,156,S0311,Rodent Inspection and Treatment,DOH- Department Of Health,DOH,1,2020/06/19 09:02:13+00,1970/01/01 00:00:00+00,2020/07/10 09:02:13+00,2020/06/19 09:02:13+00,,1970/01/01 00:00:00+00,,Open,,20-00213233,Standard,6614 EASTERN AVENUE NW,399226.76,144730.34,38.97049028,-77.00892288,WASHINGTON,DC,20012,285347,4
-77.0195741268081,38.972966331619,157,S0311,Rodent Inspection and Treatment,DOH- Department Of Health,DOH,1,2020/06/18 11:31:56+00,1970/01/01 00:00:00+00,2020/07/09 11:31:56+00,2020/06/18 11:31:56+00,,1970/01/01 00:00:00+00,,Open,,20-00212052,Standard,6809 5TH STREET NW,398304,145004.52,38.97295886,-77.01957183,WASHINGTON,DC,20012,249098,4
-77.0392644937658,38.9120434497072,158,S0311,Rodent Inspection and Treatment,DOH- Department Of Health,DOH,1,2020/06/18 22:10:47+00,2020/06/19 14:35:13+00,2020/07/09 22:10:47+00,2020/06/18 22:10:47+00,1,2020/06/19 14:34:00+00,,Closed,,20-00213020,Standard,1717 CORCORAN STREET NW,396594.82,138242.09,38.91203599,-77.0392622,WASHINGTON,DC,20009,241671,2
-76.9998152028375,38.8914474836921,159,S0311,Rodent Inspection and Treatment,DOH- Department Of Health,DOH,1,2020/05/27 16:04:41+00,2020/05/28 12:05:19+00,2020/06/16 16:04:41+00,2020/05/27 16:04:41+00,1,2020/05/28 12:05:18+00,,Closed,,20-00184079,Standard,114 5TH STREET NE,400016.23,135955.04,38.8914397,-76.99981292,WASHINGTON,DC,20002,73120,6
-76.9969825480666,38.9309462314812,160,S0311,Rodent Inspection and Treatment,DOH- Department Of Health,DOH,1,2020/06/07 12:22:30+00,2020/06/11 07:40:17+00,2020/06/25 12:22:30+00,2020/06/07 12:22:30+00,1,2020/06/11 07:40:00+00,,Closed,,20-00197954,Standard,676 KENNETH STREET NE,400261.83,140339.73,38.93093844,-76.99698026,WASHINGTON,DC,20017,312645,5
-76.9389126431135,38.9013467521736,161,S0311,Rodent Inspection and Treatment,DOH- Department Of Health,DOH,1,2020/06/18 20:23:27+00,1970/01/01 00:00:00+00,2020/07/09 20:23:27+00,2020/06/18 20:23:27+00,,1970/01/01 00:00:00+00,,Open,,20-00212980,Standard,4401 JAY STREET NE,405299.05,137055.71,38.9013393,-76.93891038,WASHINGTON,DC,20019,22336,7
-77.0205361284706,38.9418298252644,162,S0311,Rodent Inspection and Treatment,DOH- Department Of Health,DOH,1,2020/05/29 12:44:31+00,2020/06/03 21:02:00+00,2020/06/18 12:44:31+00,2020/05/29 12:44:31+00,1,2020/06/04 00:28:00+00,,Closed,,20-00186725,Standard,4132 NEW HAMPSHIRE AVENUE NW,398219.86,141548.1,38.94182236,-77.02053384,WASHINGTON,DC,20011,247603,4
-77.0439195695699,38.9143083809795,163,S0311,Rodent Inspection and Treatment,DOH- Department Of Health,DOH,1,2020/05/28 21:28:14+00,2020/06/01 18:18:36+00,2020/06/17 21:28:14+00,2020/05/28 21:28:14+00,1,2020/06/01 13:50:00+00,,Closed,,20-00185951,Standard,1909 S STREET NW,396191.21,138493.7,38.91430093,-77.04391727,WASHINGTON,DC,20009,240975,2
-76.984103690331,38.9018177340607,164,S0311,Rodent Inspection and Treatment,DOH- Department Of Health,DOH,1,2020/06/14 11:59:09+00,2020/06/18 07:56:39+00,2020/07/02 11:59:09+00,2020/06/14 11:59:09+00,1,2020/06/18 07:56:00+00,,Closed,,20-00206986,Standard,1209 HOLBROOK STREET NE,401379.07,137106.34,38.90181028,-76.98410141,WASHINGTON,DC,20002,71964,5
-76.9992666749883,38.8994551996698,165,S0311,Rodent Inspection and Treatment,DOH- Department Of Health,DOH,1,2020/05/30 12:32:51+00,2020/06/02 14:17:29+00,2020/06/18 12:32:51+00,2020/05/30 12:32:51+00,1,2020/06/02 14:17:28+00,,Closed,,20-00187831,Standard,717 5TH STREET NE,400063.81,136843.96,38.89944775,-76.99926439,WASHINGTON,DC,20002,77412,6
-76.9951987074396,38.8881202314153,166,S0311,Rodent Inspection and Treatment,DOH- Department Of Health,DOH,1,2020/06/04 13:05:07+00,2020/06/04 14:47:59+00,2020/06/24 13:05:07+00,2020/06/04 13:05:07+00,1,2020/06/04 14:46:00+00,,Closed,,20-00194646,Standard,119 8TH STREET SE,400416.75,135585.7,38.88811278,-76.99519643,WASHINGTON,DC,20003,72353,6
-77.0202595310036,38.951202991459,167,S0311,Rodent Inspection and Treatment,DOH- Department Of Health,DOH,1,2020/06/04 13:08:25+00,2020/06/10 09:00:34+00,2020/06/24 13:08:25+00,2020/06/04 13:08:25+00,1,2020/06/09 11:19:00+00,,Closed,,20-00194655,Standard,603 FARRAGUT STREET NW,398244.07,142588.6,38.95119553,-77.02025724,WASHINGTON,DC,20011,247036,4
-77.0694672671499,38.9263902979409,168,S0311,Rodent Inspection and Treatment,DOH- Department Of Health,DOH,1,2020/06/15 19:42:53+00,2020/06/18 17:08:13+00,2020/07/06 19:42:53+00,2020/06/15 19:42:53+00,1,2020/06/19 04:08:09+00,,Closed,,20-00208629,Standard,3507 FULTON STREET NW,393976.57,139836.27,38.92638284,-77.06946496,WASHINGTON,DC,20007,221618,3
-77.0399530302353,38.9224623442023,169,S0311,Rodent Inspection and Treatment,DOH- Department Of Health,DOH,1,2020/06/12 10:52:10+00,2020/06/19 12:21:58+00,2020/07/02 10:52:09+00,2020/06/12 10:52:10+00,1,2020/06/20 00:16:00+00,,Closed,,20-00205202,Standard,2431 ONTARIO ROAD NW,396535.61,139398.7,38.92245489,-77.03995073,WASHINGTON,DC,20009,235747,1
-76.9825153221119,38.8843031609406,170,S0311,Rodent Inspection and Treatment,DOH- Department Of Health,DOH,1,2020/06/08 15:17:19+00,2020/06/09 11:04:16+00,2020/06/26 15:17:19+00,2020/06/08 15:17:19+00,1,2020/06/09 14:43:27+00,,Closed,,20-00199213,Standard,1540 D STREET SE,401517.22,135162.11,38.88429571,-76.98251304,WASHINGTON,DC,20003,60845,6
-77.0311359130445,38.9652524986462,171,S0311,Rodent Inspection and Treatment,DOH- Department Of Health,DOH,1,2020/06/20 14:25:41+00,1970/01/01 00:00:00+00,2020/07/10 14:25:41+00,2020/06/20 14:25:41+00,,1970/01/01 00:00:00+00,,Open,,20-00214775,Standard,1334 RITTENHOUSE STREET NW,397301.82,144148.49,38.96524503,-77.03113362,WASHINGTON,DC,20011,257708,4
-77.0161838814609,38.9423754203993,172,S0311,Rodent Inspection and Treatment,DOH- Department Of Health,DOH,1,2020/06/20 17:11:06+00,1970/01/01 00:00:00+00,2020/07/10 17:11:06+00,2020/06/20 17:11:06+00,,1970/01/01 00:00:00+00,,Open,,20-00214893,Standard,319 UPSHUR STREET NW,398597.18,141608.59,38.94236796,-77.01618159,WASHINGTON,DC,20011,244116,4
-76.9824526532321,38.8855844140623,173,S0311,Rodent Inspection and Treatment,DOH- Department Of Health,DOH,1,2020/06/12 11:57:50+00,2020/06/16 11:08:09+00,2020/07/02 11:57:50+00,2020/06/12 11:57:50+00,1,2020/06/16 11:09:58+00,,Closed,,20-00205348,Standard,253 16TH STREET SE,401522.63,135304.34,38.88557696,-76.98245038,WASHINGTON,DC,20003,46393,6
-77.0210446623528,38.966301689052,174,S0311,Rodent Inspection and Treatment,DOH- Department Of Health,DOH,1,2020/06/12 11:53:10+00,2020/06/18 08:57:51+00,2020/07/02 11:53:10+00,2020/06/12 11:53:10+00,1,2020/06/16 13:57:00+00,,Closed,,20-00205339,Standard,525 SHERIDAN STREET NW,398176.4,144264.71,38.96629422,-77.02104237,WASHINGTON,DC,20011,251453,4
-76.9795372578477,38.8696566453468,175,S0311,Rodent Inspection and Treatment,DOH- Department Of Health,DOH,1,2020/06/19 14:25:25+00,1970/01/01 00:00:00+00,2020/07/10 14:25:25+00,2020/06/19 14:25:25+00,,1970/01/01 00:00:00+00,,Open,,20-00213941,Standard,1728 R STREET SE,401775.97,133536.29,38.8696492,-76.97953498,WASHINGTON,DC,20020,56979,8
-76.9904894631579,38.8402056189035,176,S0311,Rodent Inspection and Treatment,DOH- Department Of Health,DOH,1,2020/06/19 14:26:18+00,1970/01/01 00:00:00+00,2020/07/10 14:26:18+00,2020/06/19 14:26:18+00,,1970/01/01 00:00:00+00,,Open,,20-00213945,Standard,1125 TRENTON PLACE SE,400825.87,130266.86,38.84019784,-76.99048719,WASHINGTON,DC,20032,312767,8
-76.9947045332179,38.904232484174,177,S0311,Rodent Inspection and Treatment,DOH- Department Of Health,DOH,1,2020/06/04 14:17:52+00,2020/06/05 12:21:23+00,2020/06/24 14:17:51+00,2020/06/04 14:17:52+00,1,2020/06/05 12:22:10+00,,Closed,,20-00194879,Standard,1117 8TH STREET NE,400459.52,137374.29,38.90422503,-76.99470225,WASHINGTON,DC,20002,73922,6
-77.001675377266,38.9149949514774,178,S0311,Rodent Inspection and Treatment,DOH- Department Of Health,DOH,1,2020/05/29 10:19:02+00,2020/06/02 07:59:36+00,2020/06/18 10:19:01+00,2020/05/29 10:19:02+00,1,2020/06/02 07:59:00+00,,Closed,,20-00186399,Standard,306 SEATON PLACE NE,399854.9,138569,38.91498749,-77.00167309,WASHINGTON,DC,20002,41003,5
-76.959190276763,38.8931555500478,179,S0311,Rodent Inspection and Treatment,DOH- Department Of Health,DOH,1,2020/05/29 10:20:15+00,2020/06/02 14:16:54+00,2020/06/18 10:20:15+00,2020/05/29 10:20:15+00,1,2020/06/02 14:16:00+00,,Closed,,20-00186404,Standard,235 33RD STREET NE,403540.53,136145.44,38.8931481,-76.95918801,WASHINGTON,DC,20019,48226,7
-76.9912594433306,38.9487093983672,180,S0311,Rodent Inspection and Treatment,DOH- Department Of Health,DOH,1,2020/05/29 10:21:51+00,2020/06/02 07:46:22+00,2020/06/18 10:21:50+00,2020/05/29 10:21:51+00,1,2020/06/02 07:46:00+00,,Closed,,20-00186409,Standard,4915 SOUTH DAKOTA AVENUE NE,400757.87,142311.63,38.94870193,-76.99125716,WASHINGTON,DC,20017,16128,5
-77.0283041701415,38.9198858519209,181,S0311,Rodent Inspection and Treatment,DOH- Department Of Health,DOH,1,2020/06/20 13:56:44+00,1970/01/01 00:00:00+00,2020/07/10 13:56:44+00,2020/06/20 13:56:44+00,,1970/01/01 00:00:00+00,,Open,,20-00214744,Standard,2222 12TH STREET NW,397545.67,139112.31,38.9198784,-77.02830188,WASHINGTON,DC,20009,240703,1
-77.0050622283085,38.9128405999228,182,S0311,Rodent Inspection and Treatment,DOH- Department Of Health,DOH,1,2020/06/21 01:21:32+00,1970/01/01 00:00:00+00,2020/07/10 01:21:32+00,2020/06/21 01:21:32+00,,1970/01/01 00:00:00+00,,Open,,20-00215046,Standard,138 R STREET NE,399561.16,138329.86,38.91283281,-77.00505994,WASHINGTON,DC,20002,65510,5
-77.042533866539,38.9321512286083,183,S0311,Rodent Inspection and Treatment,DOH- Department Of Health,DOH,1,2020/06/20 11:19:01+00,1970/01/01 00:00:00+00,2020/07/10 11:19:01+00,2020/06/20 11:19:01+00,,1970/01/01 00:00:00+00,,Open,,20-00214592,Standard,1824 PARK ROAD NW,396312.31,140474.35,38.93214377,-77.04253157,WASHINGTON,DC,20010,233459,1
-77.0709911706645,38.9078601380075,184,S0311,Rodent Inspection and Treatment,DOH- Department Of Health,DOH,1,2020/05/29 10:24:18+00,2020/06/03 07:53:22+00,2020/06/18 10:24:18+00,2020/05/29 10:24:18+00,1,2020/06/02 11:51:00+00,,Closed,,20-00186420,Standard,3615 O STREET NW,393842.83,137779.37,38.90785269,-77.07098886,WASHINGTON,DC,20007,272540,2
-77.0166686093715,38.9138721463008,185,S0311,Rodent Inspection and Treatment,DOH- Department Of Health,DOH,1,2020/06/17 20:05:03+00,1970/01/01 00:00:00+00,2020/07/08 20:05:02+00,2020/06/17 20:05:03+00,,1970/01/01 00:00:00+00,,Open,,20-00211491,Standard,412 FLORIDA AVENUE NW,398554.58,138444.49,38.91386469,-77.01666632,WASHINGTON,DC,20001,237207,5
-77.0327083594005,38.9193779836126,186,S0311,Rodent Inspection and Treatment,DOH- Department Of Health,DOH,1,2020/06/18 14:14:30+00,2020/06/19 22:30:45+00,2020/07/09 14:14:30+00,2020/06/18 14:14:30+00,1,2020/06/19 22:29:00+00,,Closed,,20-00212412,Standard,1407 W STREET NW,397163.72,139056.06,38.91937019,-77.03270606,WASHINGTON,DC,20009,303230,1
-77.025356284723,38.934491170605,187,S0311,Rodent Inspection and Treatment,DOH- Department Of Health,DOH,1,2020/06/02 22:55:49+00,2020/06/05 11:07:11+00,2020/06/22 22:55:49+00,2020/06/02 22:55:49+00,1,2020/06/05 08:08:00+00,,Closed,,20-00191997,Standard,3615 NEW HAMPSHIRE AVENUE NW,397801.76,140733.55,38.93448371,-77.02535399,WASHINGTON,DC,20010,232126,1
-77.0334804335444,38.9113830471299,188,S0311,Rodent Inspection and Treatment,DOH- Department Of Health,DOH,1,2020/06/17 10:35:47+00,2020/06/19 14:39:10+00,2020/07/08 10:35:47+00,2020/06/17 10:35:47+00,1,2020/06/19 14:36:00+00,,Closed,,20-00210697,Standard,1433 Q STREET NW,397096.44,138168.58,38.91137559,-77.03347814,WASHINGTON,DC,20009,240149,2
-77.0553773096165,38.9687902578937,189,S0311,Rodent Inspection and Treatment,DOH- Department Of Health,DOH,1,2020/06/17 10:36:59+00,1970/01/01 00:00:00+00,2020/07/08 10:36:59+00,2020/06/17 10:36:59+00,,1970/01/01 00:00:00+00,,Open,,20-00210702,Standard,5730 26TH STREET NW,395201.19,144542.21,38.96878279,-77.055375,WASHINGTON,DC,20015,260075,4
-77.0662433682311,38.9064058256453,190,S0311,Rodent Inspection and Treatment,DOH- Department Of Health,DOH,1,2020/06/09 07:49:33+00,2020/06/11 08:16:35+00,2020/06/29 07:49:33+00,2020/06/09 07:49:33+00,1,2020/06/09 09:20:00+00,,Closed,,20-00199809,Standard,1236 33RD STREET NW,394254.51,137617.62,38.90639837,-77.06624106,WASHINGTON,DC,20007,272164,2
-77.0196687103455,38.9117687729644,191,S0311,Rodent Inspection and Treatment,DOH- Department Of Health,DOH,1,2020/06/16 11:22:29+00,1970/01/01 00:00:00+00,2020/07/07 11:22:29+00,2020/06/16 11:22:29+00,,1970/01/01 00:00:00+00,,Open,,20-00209264,Standard,1619 6TH STREET NW,398294.34,138211.05,38.91176132,-77.01966642,WASHINGTON,DC,20001,218370,6
-76.9764201364468,38.8960287434211,192,S0311,Rodent Inspection and Treatment,DOH- Department Of Health,DOH,1,2020/05/22 13:45:13+00,2020/05/28 08:39:30+00,2020/06/12 13:45:12+00,2020/05/22 13:45:13+00,1,2020/05/26 14:33:00+00,,Closed,,20-00178543,Standard,450 20TH STREET NE,402045.72,136463.86,38.89602129,-76.97641786,WASHINGTON,DC,20002,20798,7
-77.0166405101077,38.9575052970185,193,S0311,Rodent Inspection and Treatment,DOH- Department Of Health,DOH,1,2020/05/22 13:48:28+00,2020/05/26 12:35:48+00,2020/06/12 13:48:27+00,2020/05/22 13:48:28+00,1,2020/05/26 12:35:47+00,,Closed,,20-00178549,Standard,306 LONGFELLOW STREET NW,398557.9,143288.15,38.95749783,-77.01663822,WASHINGTON,DC,20011,249427,4
-77.0199804512845,38.9314051569755,194,S0311,Rodent Inspection and Treatment,DOH- Department Of Health,DOH,1,2020/06/19 15:12:16+00,1970/01/01 00:00:00+00,2020/07/10 15:12:15+00,2020/06/19 15:12:16+00,,1970/01/01 00:00:00+00,,Open,,20-00214044,Standard,3301 WARDER STREET NW,398267.78,140390.86,38.9313977,-77.01997816,WASHINGTON,DC,20010,229084,1
-77.0221571291121,38.9280754728435,195,S0311,Rodent Inspection and Treatment,DOH- Department Of Health,DOH,1,2020/06/19 15:13:09+00,1970/01/01 00:00:00+00,2020/07/10 15:13:09+00,2020/06/19 15:13:09+00,,1970/01/01 00:00:00+00,,Open,,20-00214052,Standard,640 COLUMBIA ROAD NW,398078.96,140021.28,38.92806801,-77.02215484,WASHINGTON,DC,20001,218711,1
-77.0438832627748,38.9049622360092,196,S0311,Rodent Inspection and Treatment,DOH- Department Of Health,DOH,1,2020/06/11 16:26:37+00,2020/06/16 09:21:40+00,2020/07/01 16:26:37+00,2020/06/11 16:26:37+00,1,2020/06/15 11:15:00+00,,Closed,,20-00204414,Standard,1140 19TH STREET NW,396193.86,137456.2,38.90495478,-77.04388097,WASHINGTON,DC,20036,241076,2
-77.0407381455898,38.9229160025724,197,S0311,Rodent Inspection and Treatment,DOH- Department Of Health,DOH,1,2020/05/23 20:05:17+00,2020/05/27 10:11:18+00,2020/06/11 20:05:17+00,2020/05/23 20:05:17+00,1,2020/05/27 10:08:00+00,,Closed,,20-00179768,Standard,1750 EUCLID STREET NW,396467.55,139449.09,38.92290855,-77.04073585,WASHINGTON,DC,20009,238053,1
-77.0013018810001,38.9202341117574,198,S0311,Rodent Inspection and Treatment,DOH- Department Of Health,DOH,1,2020/06/10 16:21:38+00,2020/06/14 12:15:32+00,2020/06/30 16:21:38+00,2020/06/10 16:21:38+00,1,2020/06/15 00:15:00+00,,Closed,,20-00202839,Standard,300 - 399 BLOCK OF ADAMS STREET NE,399887.300000004,139150.590003323,38.9202263195628,-77.0012995958226,WASHINGTON,DC,20002,807511,5
-77.0399703858435,38.9235942340864,199,S0311,Rodent Inspection and Treatment,DOH- Department Of Health,DOH,1,2020/06/12 09:01:58+00,2020/06/17 08:46:35+00,2020/07/02 09:01:58+00,2020/06/12 09:01:58+00,1,2020/06/17 08:46:00+00,,Closed,,20-00204911,Standard,2519 ONTARIO ROAD NW,396534.16,139524.35,38.92358678,-77.03996809,WASHINGTON,DC,20009,235728,1
-77.0367147334643,38.9819526877883,200,S0311,Rodent Inspection and Treatment,DOH- Department Of Health,DOH,1,2020/06/10 10:50:32+00,2020/06/12 13:19:52+00,2020/06/30 10:50:32+00,2020/06/10 10:50:32+00,1,2020/06/12 13:19:52+00,,Closed,,20-00202081,Standard,7520 16TH STREET NW,396819.08,146002.55,38.98194522,-77.03671243,WASHINGTON,DC,20012,256396,4
-77.0260250636911,38.9463209844855,201,S0311,Rodent Inspection and Treatment,DOH- Department Of Health,DOH,1,2020/06/10 16:24:31+00,2020/06/11 13:39:30+00,2020/06/30 16:24:31+00,2020/06/10 16:24:31+00,1,2020/06/11 13:39:29+00,,Closed,,20-00202846,Standard,907 BUCHANAN STREET NW,397744.15,142046.78,38.94631352,-77.02602277,WASHINGTON,DC,20011,252225,4
-77.0377198363878,38.9288976383756,202,S0311,Rodent Inspection and Treatment,DOH- Department Of Health,DOH,1,2020/06/13 11:19:56+00,2020/06/18 09:00:34+00,2020/07/02 11:19:56+00,2020/06/13 11:19:56+00,1,2020/06/18 09:00:34+00,,Closed,,20-00206393,Standard,1611 IRVING STREET NW,396729.56,140112.99,38.92889018,-77.03771754,WASHINGTON,DC,20010,305811,1
-77.0118995543681,38.9134765426764,203,S0311,Rodent Inspection and Treatment,DOH- Department Of Health,DOH,1,2020/05/27 17:07:27+00,2020/05/28 11:02:09+00,2020/06/16 17:07:27+00,2020/05/27 17:07:27+00,1,2020/05/28 11:02:08+00,,Closed,,20-00184200,Standard,1727 1ST STREET NW,398968.18,138400.51,38.91346909,-77.01189727,WASHINGTON,DC,20001,227032,5
-76.9971222667852,38.9554020253791,204,S0311,Rodent Inspection and Treatment,DOH- Department Of Health,DOH,1,2020/06/18 10:30:28+00,1970/01/01 00:00:00+00,2020/07/09 10:30:28+00,2020/06/18 10:30:28+00,,1970/01/01 00:00:00+00,,Open,,20-00211907,Standard,5370 CHILLUM PLACE NE,400249.63,143054.54,38.95539456,-76.99711998,WASHINGTON,DC,20011,9504,5
-77.0007723508756,38.8878980006381,205,S0311,Rodent Inspection and Treatment,DOH- Department Of Health,DOH,1,2020/05/27 12:39:26+00,2020/05/28 11:09:29+00,2020/06/16 12:39:26+00,2020/05/27 12:39:26+00,1,2020/05/28 11:08:00+00,,Closed,,20-00183518,Standard,123 4TH STREET SE,399933.19,135561.02,38.88789055,-77.00077007,WASHINGTON,DC,20003,70499,6
-77.0510025533823,38.9243360991847,206,S0311,Rodent Inspection and Treatment,DOH- Department Of Health,DOH,1,2020/05/27 12:39:41+00,2020/05/29 09:59:25+00,2020/06/16 12:39:41+00,2020/05/27 12:39:41+00,1,2020/05/29 09:53:00+00,,Closed,,20-00183521,Standard,2622 WOODLEY PLACE NW,395577.55,139607.18,38.92432864,-77.05100025,WASHINGTON,DC,20008,236651,3
-77.0047691732978,38.8842045589985,207,S0311,Rodent Inspection and Treatment,DOH- Department Of Health,DOH,1,2020/05/29 10:24:37+00,2020/06/02 11:32:34+00,2020/06/18 10:24:37+00,2020/05/29 10:24:37+00,1,2020/06/02 11:31:00+00,,Closed,,20-00186422,Standard,132 NORTH CAROLINA AVENUE SE,399586.41,135151.03,38.88419711,-77.00476689,WASHINGTON,DC,20003,67940,6
-77.03120844717,38.9369576686812,208,S0311,Rodent Inspection and Treatment,DOH- Department Of Health,DOH,1,2020/05/29 10:28:03+00,2020/06/03 16:13:12+00,2020/06/18 10:28:03+00,2020/05/29 10:28:03+00,1,2020/06/04 00:57:00+00,,Closed,,20-00186430,Standard,1337 SPRING ROAD NW,397294.46,141007.51,38.93694987,-77.03120615,WASHINGTON,DC,20010,225259,4
-76.9798916068962,38.8888524220345,209,S0311,Rodent Inspection and Treatment,DOH- Department Of Health,DOH,1,2020/06/17 09:06:08+00,1970/01/01 00:00:00+00,2020/07/08 09:06:08+00,2020/06/17 09:06:08+00,,1970/01/01 00:00:00+00,,Open,,20-00210469,Standard,1722 A STREET SE,401744.75,135667.16,38.88884497,-76.97988933,WASHINGTON,DC,20003,57226,6
-77.0130652396624,38.9151708863168,210,S0311,Rodent Inspection and Treatment,DOH- Department Of Health,DOH,1,2020/06/19 21:24:07+00,1970/01/01 00:00:00+00,2020/07/09 21:24:07+00,2020/06/19 21:24:07+00,,1970/01/01 00:00:00+00,,Open,,20-00214376,Standard,126 RHODE ISLAND AVENUE NW,398867.11,138588.61,38.91516343,-77.01306295,WASHINGTON,DC,20001,227213,5
-77.0273274609616,38.9195882690932,211,S0311,Rodent Inspection and Treatment,DOH- Department Of Health,DOH,1,2020/06/06 16:06:26+00,2020/06/15 08:03:54+00,2020/06/25 16:06:26+00,2020/06/06 16:06:26+00,1,2020/06/15 08:03:00+00,,Closed,,20-00197570,Standard,2212 11TH STREET NW,397630.36,139079.25,38.91958048,-77.02732517,WASHINGTON,DC,20001,238974,1
-77.0156207667836,38.9409165142294,212,S0311,Rodent Inspection and Treatment,DOH- Department Of Health,DOH,1,2020/06/08 19:20:11+00,2020/06/09 11:45:19+00,2020/06/26 19:20:11+00,2020/06/08 19:20:11+00,1,2020/06/09 11:45:19+00,,Closed,,20-00199552,Standard,302 TAYLOR STREET NW,398645.97,141446.63,38.94090905,-77.01561848,WASHINGTON,DC,20011,244229,4
-76.9822889870109,38.9236588231018,213,S0311,Rodent Inspection and Treatment,DOH- Department Of Health,DOH,1,2020/06/16 13:46:43+00,1970/01/01 00:00:00+00,2020/07/07 13:46:43+00,2020/06/16 13:46:43+00,,1970/01/01 00:00:00+00,,Open,,20-00209574,Standard,1536 DOUGLAS STREET NE,401536.01,139530.91,38.92365136,-76.98228671,WASHINGTON,DC,20018,60978,5
-77.0274699268471,38.9098489626072,214,S0311,Rodent Inspection and Treatment,DOH- Department Of Health,DOH,1,2020/06/03 11:47:29+00,2020/06/05 09:04:58+00,2020/06/23 11:47:29+00,2020/06/03 11:47:29+00,1,2020/06/04 11:30:00+00,,Closed,,20-00192790,Standard,1107 P STREET NW,397617.68,137998.11,38.90984151,-77.02746763,WASHINGTON,DC,20005,225456,2
-77.0420475636815,38.9248220600078,215,S0311,Rodent Inspection and Treatment,DOH- Department Of Health,DOH,1,2020/06/14 13:21:44+00,2020/06/17 08:43:14+00,2020/07/02 13:21:44+00,2020/06/14 13:21:44+00,1,2020/06/17 08:40:00+00,,Closed,,20-00207045,Standard,1759 LANIER PLACE NW,396354.1,139660.73,38.9248146,-77.04204527,WASHINGTON,DC,20009,236054,1
-77.0240693925993,38.9503429697231,216,S0311,Rodent Inspection and Treatment,DOH- Department Of Health,DOH,1,2020/06/14 13:25:03+00,2020/06/16 14:45:06+00,2020/07/02 13:25:03+00,2020/06/14 13:25:03+00,1,2020/06/16 14:45:05+00,,Closed,,20-00207047,Standard,4912 ILLINOIS AVENUE NW,397913.8,142493.21,38.95033551,-77.0240671,WASHINGTON,DC,20011,251897,4
-77.0409583456073,38.9248204650167,217,S0311,Rodent Inspection and Treatment,DOH- Department Of Health,DOH,1,2020/06/14 13:25:57+00,2020/06/17 08:45:29+00,2020/07/02 13:25:57+00,2020/06/14 13:25:57+00,1,2020/06/17 08:45:00+00,,Closed,,20-00207048,Standard,2720 ONTARIO ROAD NW,396448.55,139660.51,38.92481301,-77.04095605,WASHINGTON,DC,20009,235903,1
-77.0100112718518,38.8834228398082,218,S0311,Rodent Inspection and Treatment,DOH- Department Of Health,DOH,1,2020/06/18 08:10:21+00,1970/01/01 00:00:00+00,2020/07/09 08:10:21+00,2020/06/18 08:10:21+00,,1970/01/01 00:00:00+00,,Open,,20-00211622,Standard,499 SOUTH CAPITOL STREET SW,399131.58,135064.29,38.88341539,-77.01000899,WASHINGTON,DC,20003,276662,6
-77.0312017200176,38.9094638196569,219,S0311,Rodent Inspection and Treatment,DOH- Department Of Health,DOH,1,2020/06/03 20:33:24+00,2020/06/05 09:03:22+00,2020/06/23 20:33:24+00,2020/06/03 20:33:24+00,1,2020/06/04 11:50:00+00,,Closed,,20-00193725,Standard,1312 P STREET NW,397294,137955.46,38.90945637,-77.03119943,WASHINGTON,DC,20005,303386,2
-76.9849976639403,38.9075887832306,220,S0311,Rodent Inspection and Treatment,DOH- Department Of Health,DOH,1,2020/06/06 15:32:35+00,2020/06/09 06:22:40+00,2020/06/25 15:32:35+00,2020/06/06 15:32:35+00,1,2020/06/09 06:19:00+00,,Closed,,20-00197550,Standard,1247 MEIGS PLACE NE,401301.42,137746.96,38.90758133,-76.98499538,WASHINGTON,DC,20002,69712,5
-76.9725805134326,38.8975944601681,221,S0311,Rodent Inspection and Treatment,DOH- Department Of Health,DOH,1,2020/06/11 18:33:13+00,2020/06/16 14:56:39+00,2020/07/01 18:33:13+00,2020/06/11 18:33:13+00,1,2020/06/16 13:54:00+00,,Closed,,20-00204556,Standard,560 24TH STREET NE,402378.75,136637.76,38.89758701,-76.97257824,WASHINGTON,DC,20002,7700,7
-77.0343032677418,38.9114887465464,222,S0311,Rodent Inspection and Treatment,DOH- Department Of Health,DOH,1,2020/06/18 09:37:09+00,2020/06/19 15:21:29+00,2020/07/09 09:37:08+00,2020/06/18 09:37:09+00,1,2020/06/20 00:00:00+00,,Closed,,20-00211767,Standard,1607 15TH STREET NW,397025.08,138180.34,38.91148129,-77.03430097,WASHINGTON,DC,20009,218350,2
